,id_bdq,foco_id,lat,lon,data_pas,pais,estado,municipio,bioma,ano,mes,dia
0,191135182,4b722531-5abb-11e8-911c-28924ad12c5c,-19.575,-43.593,2016-01-01 16:31:00,Brasil,MINAS GERAIS,TAQUARAÇU DE MINAS,Cerrado,2016,1,1
1,191216016,86c9d5d2-5aba-11e8-911c-28924ad12c5c,3.887,-60.033,2016-01-02 17:20:00,Brasil,RORAIMA,NORMANDIA,Amazônia,2016,1,2
7,191216025,86c9d5d8-5aba-11e8-911c-28924ad12c5c,0.593,-63.508,2016-01-02 17:20:00,Brasil,AMAZONAS,BARCELOS,Amazônia,2016,1,2
10,191302299,84911fbf-5aba-11e8-911c-28924ad12c5c,-1.404,-46.107,2016-01-03 16:23:00,Brasil,MARANHÃO,CARUTAPERA,Amazônia,2016,1,3
13,191302306,84911fc2-5aba-11e8-911c-28924ad12c5c,-2.777,-48.111,2016-01-03 16:23:00,Brasil,PARÁ,TOMÉ-AÇU,Amazônia,2016,1,3
15,191302152,4b759682-5abb-11e8-911c-28924ad12c5c,-7.455,-35.005,2016-01-03 16:21:00,Brasil,PERNAMBUCO,ITAMBÉ,Mata Atlântica,2016,1,3
16,191302153,4b759683-5abb-11e8-911c-28924ad12c5c,-8.067,-41.504,2016-01-03 16:21:00,Brasil,PIAUÍ,SÃO FRANCISCO DE ASSIS DO PIAUÍ,Caatinga,2016,1,3
18,191302155,4b759685-5abb-11e8-911c-28924ad12c5c,-10.614,-40.458,2016-01-03 16:21:00,Brasil,BAHIA,ANTÔNIO GONÇALVES,Caatinga,2016,1,3
20,191302158,4b759687-5abb-11e8-911c-28924ad12c5c,-10.222,-36.963,2016-01-03 16:21:00,Brasil,SERGIPE,CANHOBA,Mata Atlântica,2016,1,3
21,191302160,4b759688-5abb-11e8-911c-28924ad12c5c,-9.658,-36.031,2016-01-03 16:21:00,Brasil,ALAGOAS,PILAR,Mata Atlântica,2016,1,3
30,191389903,8491a44e-5aba-11e8-911c-28924ad12c5c,-2.453,-47.029,2016-01-04 17:06:00,Brasil,PARÁ,NOVA ESPERANÇA DO PIRIÁ,Amazônia,2016,1,4
33,191389906,8491a451-5aba-11e8-911c-28924ad12c5c,-3.068,-45.248,2016-01-04 17:06:00,Brasil,MARANHÃO,VIANA,Amazônia,2016,1,4
34,191463684,4b81dfa0-5abb-11e8-911c-28924ad12c5c,-2.996,-41.137,2016-01-05 16:11:00,Brasil,CEARÁ,BARROQUINHA,Caatinga,2016,1,5
35,191463685,4b81dfa2-5abb-11e8-911c-28924ad12c5c,-2.703,-43.686,2016-01-05 16:11:00,Brasil,MARANHÃO,HUMBERTO DE CAMPOS,Cerrado,2016,1,5
38,191463690,4b81dfa5-5abb-11e8-911c-28924ad12c5c,-3.021,-41.732,2016-01-05 16:11:00,Brasil,PIAUÍ,PARNAÍBA,Caatinga,2016,1,5
40,191467665,86ca58da-5aba-11e8-911c-28924ad12c5c,0.556,-63.668,2016-01-05 17:50:00,Brasil,AMAZONAS,BARCELOS,Amazônia,2016,1,5
52,191666747,8491a54b-5aba-11e8-911c-28924ad12c5c,-2.876,-54.182,2016-01-07 17:37:00,Brasil,PARÁ,SANTARÉM,Amazônia,2016,1,7
54,191666749,8491a54d-5aba-11e8-911c-28924ad12c5c,-3.356,-64.723,2016-01-07 17:37:00,Brasil,AMAZONAS,TEFÉ,Amazônia,2016,1,7
57,192288334,86ca5aac-5aba-11e8-911c-28924ad12c5c,2.984,-61.122,2016-01-14 17:45:00,Brasil,RORAIMA,ALTO ALEGRE,Amazônia,2016,1,14
59,192110737,67e25adb-5abb-11e8-911c-28924ad12c5c,-16.293,-39.699,2016-01-12 16:13:00,Brasil,BAHIA,EUNÁPOLIS,Mata Atlântica,2016,1,12
63,195546287,86edaf98-5aba-11e8-911c-28924ad12c5c,-5.543,-48.435,2016-02-18 16:35:00,Brasil,PARÁ,SÃO JOÃO DO ARAGUAIA,Amazônia,2016,2,18
64,195546183,4bf2a619-5abb-11e8-911c-28924ad12c5c,-18.101,-41.822,2016-02-18 16:31:00,Brasil,MINAS GERAIS,ITAMBACURI,Mata Atlântica,2016,2,18
66,195546187,4bf2a61d-5abb-11e8-911c-28924ad12c5c,-17.56,-51.196,2016-02-18 16:32:00,Brasil,GOIÁS,RIO VERDE,Cerrado,2016,2,18
67,192740034,4ba3bd77-5abb-11e8-911c-28924ad12c5c,-30.111,-51.116,2016-01-20 16:59:00,Brasil,RIO GRANDE DO SUL,PORTO ALEGRE,Pampa,2016,1,20
68,192740035,4ba3bd78-5abb-11e8-911c-28924ad12c5c,-28.591,-49.161,2016-01-20 16:59:00,Brasil,SANTA CATARINA,TREZE DE MAIO,Mata Atlântica,2016,1,20
73,195549794,84943708-5aba-11e8-911c-28924ad12c5c,0.847,-60.489,2016-02-18 18:15:00,Brasil,RORAIMA,RORAINÓPOLIS,Amazônia,2016,2,18
75,195549802,8494370a-5aba-11e8-911c-28924ad12c5c,-0.597,-65.103,2016-02-18 18:15:00,Brasil,AMAZONAS,SANTA ISABEL DO RIO NEGRO,Amazônia,2016,2,18
79,195546292,86caee5f-5aba-11e8-911c-28924ad12c5c,-5.622,-46.166,2016-02-18 16:35:00,Brasil,MARANHÃO,GRAJAÚ,Cerrado,2016,2,18
88,195549758,849436ff-5aba-11e8-911c-28924ad12c5c,-13.011,-61.184,2016-02-18 18:11:00,Brasil,RONDÔNIA,CORUMBIARA,Amazônia,2016,2,18
90,195549763,84943701-5aba-11e8-911c-28924ad12c5c,-11.752,-56.974,2016-02-18 18:11:00,Brasil,MATO GROSSO,PORTO DOS GAÚCHOS,Amazônia,2016,2,18
98,195546267,849436f8-5aba-11e8-911c-28924ad12c5c,-6.539,-48.505,2016-02-18 16:35:00,Brasil,TOCANTINS,XAMBIOÁ,Amazônia,2016,2,18
99,192918542,595345b1-5abb-11e8-911c-28924ad12c5c,-20.18,-49.818,2016-01-22 16:49:00,Brasil,SÃO PAULO,CARDOSO,Cerrado,2016,1,22
100,192920334,86ca5c71-5aba-11e8-911c-28924ad12c5c,-3.391,-52.187,2016-01-22 16:54:00,Brasil,PARÁ,ALTAMIRA,Amazônia,2016,1,22
106,192920387,86ca5c78-5aba-11e8-911c-28924ad12c5c,1.054,-59.594,2016-01-22 16:55:00,Brasil,RORAIMA,CAROEBE,Amazônia,2016,1,22
123,193046247,84922ceb-5aba-11e8-911c-28924ad12c5c,1.094,-60.729,2016-01-23 17:38:00,Brasil,RORAIMA,CARACARAÍ,Amazônia,2016,1,23
141,193386722,8492b1e1-5aba-11e8-911c-28924ad12c5c,0.77,-60.337,2016-01-26 18:09:00,Brasil,RORAIMA,RORAINÓPOLIS,Amazônia,2016,1,26
142,193386723,8492b1e2-5aba-11e8-911c-28924ad12c5c,0.472,-67.355,2016-01-26 18:09:00,Brasil,AMAZONAS,SÃO GABRIEL DA CACHOEIRA,Amazônia,2016,1,26
146,193165311,84922de0-5aba-11e8-911c-28924ad12c5c,-1.269,-52.082,2016-01-24 16:42:00,Brasil,PARÁ,ALMEIRIM,Amazônia,2016,1,24
171,193479466,86caec17-5aba-11e8-911c-28924ad12c5c,4.922,-60.258,2016-01-27 17:15:00,Brasil,RORAIMA,UIRAMUTÃ,Amazônia,2016,1,27
172,193479350,86edaf20-5aba-11e8-911c-28924ad12c5c,0.097,-63.412,2016-01-27 17:14:00,Brasil,AMAZONAS,BARCELOS,Amazônia,2016,1,27
187,194396093,4bd8dd81-5abb-11e8-911c-28924ad12c5c,-20.314,-48.43,2016-02-05 17:01:00,Brasil,SÃO PAULO,GUAÍRA,Cerrado,2016,2,5
188,194396094,4bd8dd82-5abb-11e8-911c-28924ad12c5c,-18.897,-53.508,2016-02-05 17:02:00,Brasil,MATO GROSSO DO SUL,FIGUEIRÃO,Cerrado,2016,2,5
189,193279132,86caebfe-5aba-11e8-911c-28924ad12c5c,-1.027,-61.901,2016-01-25 17:25:00,Brasil,RORAIMA,CARACARAÍ,Amazônia,2016,1,25
190,193279133,86caebff-5aba-11e8-911c-28924ad12c5c,-2.905,-52.211,2016-01-25 17:25:00,Brasil,PARÁ,VITÓRIA DO XINGU,Amazônia,2016,1,25
191,193278821,8492b042-5aba-11e8-911c-28924ad12c5c,-11.546,-54.982,2016-01-25 17:22:00,Brasil,MATO GROSSO,CLÁUDIA,Amazônia,2016,1,25
200,195546239,4bf2a62d-5abb-11e8-911c-28924ad12c5c,-8.761,-44.037,2016-02-18 16:34:00,Brasil,PIAUÍ,CRISTINO CASTRO,Cerrado,2016,2,18
202,195546242,4bf2a62f-5abb-11e8-911c-28924ad12c5c,-9.514,-43.38,2016-02-18 16:34:00,Brasil,BAHIA,CAMPO ALEGRE DE LOURDES,Caatinga,2016,2,18
208,195982522,5b06fbe4-5abb-11e8-911c-28924ad12c5c,-16.87,-39.205,2016-02-25 16:38:00,Brasil,BAHIA,PORTO SEGURO,Mata Atlântica,2016,2,25
209,195982523,5b06fbe5-5abb-11e8-911c-28924ad12c5c,-16.73,-42.198,2016-02-25 16:38:00,Brasil,MINAS GERAIS,CORONEL MURTA,Cerrado,2016,2,25
216,193811866,86caec4e-5aba-11e8-911c-28924ad12c5c,2.413,-61.626,2016-01-30 17:45:00,Brasil,RORAIMA,IRACEMA,Amazônia,2016,1,30
218,195982596,595bf846-5abb-11e8-911c-28924ad12c5c,-9.115,-44.493,2016-02-25 16:40:00,Brasil,PIAUÍ,BOM JESUS,Cerrado,2016,2,25
224,193811571,8492b363-5aba-11e8-911c-28924ad12c5c,-0.607,-62.992,2016-01-30 17:44:00,Brasil,AMAZONAS,BARCELOS,Amazônia,2016,1,30
226,195982558,4bfb2c8b-5abb-11e8-911c-28924ad12c5c,-15.385,-51.588,2016-02-25 16:39:00,Brasil,GOIÁS,JUSSARA,Cerrado,2016,2,25
227,195982560,4bfb2c8c-5abb-11e8-911c-28924ad12c5c,-10.078,-36.817,2016-02-25 16:39:00,Brasil,ALAGOAS,OLHO D'ÁGUA GRANDE,Caatinga,2016,2,25
233,195982541,4bfb2c84-5abb-11e8-911c-28924ad12c5c,-10.784,-37.193,2016-02-25 16:39:00,Brasil,SERGIPE,LARANJEIRAS,Mata Atlântica,2016,2,25
239,194581487,8493a520-5aba-11e8-911c-28924ad12c5c,-12.481,-52.344,2016-02-07 16:51:00,Brasil,MATO GROSSO,QUERÊNCIA,Amazônia,2016,2,7
241,194581512,8493a522-5aba-11e8-911c-28924ad12c5c,-7.58,-47.395,2016-02-07 16:52:00,Brasil,MARANHÃO,CAROLINA,Cerrado,2016,2,7
242,194581514,8493a523-5aba-11e8-911c-28924ad12c5c,-8.952,-54.655,2016-02-07 16:52:00,Brasil,PARÁ,ALTAMIRA,Amazônia,2016,2,7
244,194581516,8493a525-5aba-11e8-911c-28924ad12c5c,-8.101,-47.437,2016-02-07 16:52:00,Brasil,TOCANTINS,GOIATINS,Cerrado,2016,2,7
252,195982622,849437db-5aba-11e8-911c-28924ad12c5c,-6.35,-44.592,2016-02-25 16:41:00,Brasil,MARANHÃO,MIRADOR,Cerrado,2016,2,25
254,195982624,849437dd-5aba-11e8-911c-28924ad12c5c,-4.227,-48.396,2016-02-25 16:41:00,Brasil,PARÁ,RONDON DO PARÁ,Amazônia,2016,2,25
260,195982620,849437d9-5aba-11e8-911c-28924ad12c5c,-5.713,-48.073,2016-02-25 16:41:00,Brasil,TOCANTINS,ARAGUATINS,Cerrado,2016,2,25
262,194664484,4bde40c6-5abb-11e8-911c-28924ad12c5c,-7.266,-35.482,2016-02-08 15:57:00,Brasil,PARAÍBA,MOGEIRO,Caatinga,2016,2,8
263,194664477,4bde40c3-5abb-11e8-911c-28924ad12c5c,-11.761,-44.022,2016-02-08 15:56:00,Brasil,BAHIA,WANDERLEY,Cerrado,2016,2,8
265,194664483,4bde40c5-5abb-11e8-911c-28924ad12c5c,-7.862,-35.019,2016-02-08 15:57:00,Brasil,PERNAMBUCO,IGARASSU,Mata Atlântica,2016,2,8
266,195982573,849437c5-5aba-11e8-911c-28924ad12c5c,-12.265,-52.437,2016-02-25 16:39:00,Brasil,MATO GROSSO,QUERÊNCIA,Amazônia,2016,2,25
276,194977983,59593742-5abb-11e8-911c-28924ad12c5c,-20.948,-48.494,2016-02-11 16:24:00,Brasil,SÃO PAULO,BEBEDOURO,Cerrado,2016,2,11
277,194977984,59593743-5abb-11e8-911c-28924ad12c5c,-20.758,-44.074,2016-02-11 16:24:00,Brasil,MINAS GERAIS,ENTRE RIOS DE MINAS,Mata Atlântica,2016,2,11
278,194977985,59593744-5abb-11e8-911c-28924ad12c5c,-19.636,-39.972,2016-02-11 16:24:00,Brasil,ESPÍRITO SANTO,LINHARES,Mata Atlântica,2016,2,11
283,194978177,8493a6fb-5aba-11e8-911c-28924ad12c5c,-10.512,-48.268,2016-02-11 16:27:00,Brasil,TOCANTINS,MONTE DO CARMO,Cerrado,2016,2,11
284,194978236,8493a718-5aba-11e8-911c-28924ad12c5c,-5.582,-45.371,2016-02-11 16:28:00,Brasil,MARANHÃO,BARRA DO CORDA,Cerrado,2016,2,11
286,194978260,4be4b78b-5abb-11e8-911c-28924ad12c5c,-6.664,-38.765,2016-02-11 16:28:00,Brasil,CEARÁ,UMARI,Caatinga,2016,2,11
289,194978270,4be4b78e-5abb-11e8-911c-28924ad12c5c,-8.576,-45.579,2016-02-11 16:28:00,Brasil,PIAUÍ,SANTA FILOMENA,Cerrado,2016,2,11
293,194983714,8493a763-5aba-11e8-911c-28924ad12c5c,-12.88,-56.862,2016-02-11 18:05:00,Brasil,MATO GROSSO,NOVA MARINGÁ,Amazônia,2016,2,11
295,194978347,86caed51-5aba-11e8-911c-28924ad12c5c,-1.716,-47.21,2016-02-11 16:30:00,Brasil,PARÁ,CAPITÃO POÇO,Amazônia,2016,2,11
299,194869413,8493a6cb-5aba-11e8-911c-28924ad12c5c,-13.009,-58.823,2016-02-10 17:22:00,Brasil,MATO GROSSO,SAPEZAL,Cerrado,2016,2,10
300,194869414,8493a6cc-5aba-11e8-911c-28924ad12c5c,-11.014,-46.561,2016-02-10 17:22:00,Brasil,TOCANTINS,MATEIROS,Cerrado,2016,2,10
301,194869415,8493a6cd-5aba-11e8-911c-28924ad12c5c,-9.433,-64.554,2016-02-10 17:23:00,Brasil,RONDÔNIA,PORTO VELHO,Amazônia,2016,2,10
304,194869418,8493a6d0-5aba-11e8-911c-28924ad12c5c,-9.526,-54.658,2016-02-10 17:23:00,Brasil,PARÁ,NOVO PROGRESSO,Amazônia,2016,2,10
310,194869547,86caed33-5aba-11e8-911c-28924ad12c5c,-2.459,-57.542,2016-02-10 17:25:00,Brasil,AMAZONAS,URUCURITUBA,Amazônia,2016,2,10
337,195078130,86caed67-5aba-11e8-911c-28924ad12c5c,-10.763,-51.941,2016-02-12 17:10:00,Brasil,MATO GROSSO,PORTO ALEGRE DO NORTE,Amazônia,2016,2,12
342,195852340,84943792-5aba-11e8-911c-28924ad12c5c,-6.068,-47.288,2016-02-23 16:53:00,Brasil,MARANHÃO,RIBAMAR FIQUENE,Cerrado,2016,2,23
344,195852344,84943794-5aba-11e8-911c-28924ad12c5c,-7.403,-48.698,2016-02-23 16:53:00,Brasil,TOCANTINS,ARAGUAÍNA,Amazônia,2016,2,23
353,195852327,84943788-5aba-11e8-911c-28924ad12c5c,-6.283,-52.433,2016-02-23 16:53:00,Brasil,PARÁ,SÃO FÉLIX DO XINGU,Amazônia,2016,2,23
356,195852250,86caee83-5aba-11e8-911c-28924ad12c5c,-12.925,-54.028,2016-02-23 16:52:00,Brasil,MATO GROSSO,PARANATINGA,Amazônia,2016,2,23
385,195735267,84943737-5aba-11e8-911c-28924ad12c5c,-11.753,-55.005,2016-02-21 17:04:00,Brasil,MATO GROSSO,SANTA CARMEM,Amazônia,2016,2,21
394,195673042,8494370b-5aba-11e8-911c-28924ad12c5c,-10.346,-50.699,2016-02-20 16:21:00,Brasil,MATO GROSSO,SANTA TEREZINHA,Cerrado,2016,2,20
395,195673050,8494370c-5aba-11e8-911c-28924ad12c5c,-11.25,-46.997,2016-02-20 16:21:00,Brasil,TOCANTINS,ALMAS,Cerrado,2016,2,20
396,195673053,8494370d-5aba-11e8-911c-28924ad12c5c,-5.641,-45.217,2016-02-20 16:22:00,Brasil,MARANHÃO,BARRA DO CORDA,Cerrado,2016,2,20
397,195673054,8494370e-5aba-11e8-911c-28924ad12c5c,-9.43,-50.404,2016-02-20 16:22:00,Brasil,PARÁ,SANTANA DO ARAGUAIA,Amazônia,2016,2,20
398,195470639,86caee57-5aba-11e8-911c-28924ad12c5c,-3.454,-59.103,2016-02-17 17:31:00,Brasil,AMAZONAS,AUTAZES,Amazônia,2016,2,17
400,195470604,86caee4e-5aba-11e8-911c-28924ad12c5c,-5.864,-57.493,2016-02-17 17:30:00,Brasil,PARÁ,JACAREACANGA,Amazônia,2016,2,17
409,195470672,84943678-5aba-11e8-911c-28924ad12c5c,1.058,-59.862,2016-02-17 17:32:00,Brasil,RORAIMA,SÃO JOÃO DA BALIZA,Amazônia,2016,2,17
413,195464754,595abef1-5abb-11e8-911c-28924ad12c5c,-10.485,-38.485,2016-02-17 15:50:00,Brasil,BAHIA,CÍCERO DANTAS,Caatinga,2016,2,17
414,195464755,595abef2-5abb-11e8-911c-28924ad12c5c,-11.085,-37.875,2016-02-17 15:50:00,Brasil,SERGIPE,TOBIAS BARRETO,Caatinga,2016,2,17
415,195470153,595abef3-5abb-11e8-911c-28924ad12c5c,-26.243,-51.909,2016-02-17 17:24:00,Brasil,PARANÁ,CORONEL DOMINGOS SOARES,Mata Atlântica,2016,2,17
416,195470154,595abef4-5abb-11e8-911c-28924ad12c5c,-26.729,-53.52,2016-02-17 17:24:00,Brasil,SANTA CATARINA,SÃO MIGUEL DO OESTE,Mata Atlântica,2016,2,17
418,195470234,595abf1c-5abb-11e8-911c-28924ad12c5c,-23.213,-54.315,2016-02-17 17:25:00,Brasil,MATO GROSSO DO SUL,ITAQUIRAÍ,Mata Atlântica,2016,2,17
421,195470267,4bf1733c-5abb-11e8-911c-28924ad12c5c,-19.102,-50.476,2016-02-17 17:26:00,Brasil,MINAS GERAIS,SANTA VITÓRIA,Mata Atlântica,2016,2,17
422,195470269,4bf1733e-5abb-11e8-911c-28924ad12c5c,-19.023,-51.107,2016-02-17 17:26:00,Brasil,GOIÁS,ITARUMÃ,Cerrado,2016,2,17
428,192201509,86db133a-5aba-11e8-911c-28924ad12c5c,-1.232,-52.155,2016-01-13 17:00:00,Brasil,PARÁ,ALMEIRIM,Amazônia,2016,1,13
429,192201539,4b95ac4d-5abb-11e8-911c-28924ad12c5c,4.432,-61.233,2016-01-13 17:02:00,Brasil,RORAIMA,PACARAIMA,Amazônia,2016,1,13
433,192201405,59511fca-5abb-11e8-911c-28924ad12c5c,-7.697,-41.271,2016-01-13 16:58:00,Brasil,PIAUÍ,PATOS DO PIAUÍ,Caatinga,2016,1,13
434,192027949,8491a6c3-5aba-11e8-911c-28924ad12c5c,0.905,-59.821,2016-01-11 17:14:00,Brasil,RORAIMA,SÃO JOÃO DA BALIZA,Amazônia,2016,1,11
441,192027843,8491a682-5aba-11e8-911c-28924ad12c5c,-1.35,-53.791,2016-01-11 17:13:00,Brasil,PARÁ,PRAINHA,Amazônia,2016,1,11
445,192027847,8491a686-5aba-11e8-911c-28924ad12c5c,-1.503,-60.28,2016-01-11 17:13:00,Brasil,AMAZONAS,PRESIDENTE FIGUEIREDO,Amazônia,2016,1,11
452,192027784,8491a648-5aba-11e8-911c-28924ad12c5c,-2.837,-45.548,2016-01-11 17:12:00,Brasil,MARANHÃO,SANTA HELENA,Amazônia,2016,1,11
453,192456384,86db1366-5aba-11e8-911c-28924ad12c5c,-4.268,-54.75,2016-01-16 17:30:00,Brasil,PARÁ,PLACAS,Amazônia,2016,1,16
456,192456410,86db1369-5aba-11e8-911c-28924ad12c5c,-3.187,-58.16,2016-01-16 17:31:00,Brasil,AMAZONAS,URUCURITUBA,Amazônia,2016,1,16
464,192451301,4b9bbcde-5abb-11e8-911c-28924ad12c5c,-3.638,-40.24,2016-01-16 15:52:00,Brasil,CEARÁ,SOBRAL,Caatinga,2016,1,16
465,200078324,4c479f54-5abb-11e8-911c-28924ad12c5c,-19.742,-45.265,2016-04-25 17:02:00,Brasil,MINAS GERAIS,BOM DESPACHO,Cerrado,2016,4,25
466,200078321,4c479f51-5abb-11e8-911c-28924ad12c5c,-21.215,-50.844,2016-04-25 17:02:00,Brasil,SÃO PAULO,VALPARAÍSO,Mata Atlântica,2016,4,25
467,200078322,4c479f52-5abb-11e8-911c-28924ad12c5c,-18.847,-39.823,2016-04-25 17:02:00,Brasil,ESPÍRITO SANTO,SÃO MATEUS,Mata Atlântica,2016,4,25
478,200078474,86cb814d-5aba-11e8-911c-28924ad12c5c,-12.359,-56.908,2016-04-25 17:05:00,Brasil,MATO GROSSO,TAPURAH,Amazônia,2016,4,25
480,200078477,86cb814f-5aba-11e8-911c-28924ad12c5c,-10.874,-49.636,2016-04-25 17:05:00,Brasil,TOCANTINS,LAGOA DA CONFUSÃO,Cerrado,2016,4,25
482,200078479,86cb8151-5aba-11e8-911c-28924ad12c5c,-8.975,-50.372,2016-04-25 17:05:00,Brasil,PARÁ,SANTANA DO ARAGUAIA,Amazônia,2016,4,25
512,200149147,5b0818e0-5abb-11e8-911c-28924ad12c5c,-19.24,-39.793,2016-04-26 16:07:00,Brasil,ESPÍRITO SANTO,LINHARES,Mata Atlântica,2016,4,26
514,200153389,86cb8182-5aba-11e8-911c-28924ad12c5c,3.724,-61.107,2016-04-26 17:52:00,Brasil,RORAIMA,AMAJARI,Amazônia,2016,4,26
515,200149162,4c4a90c2-5abb-11e8-911c-28924ad12c5c,-11.984,-40.183,2016-04-26 16:09:00,Brasil,BAHIA,BAIXA GRANDE,Caatinga,2016,4,26
517,200149169,4c4a90c4-5abb-11e8-911c-28924ad12c5c,-7.651,-45.34,2016-04-26 16:10:00,Brasil,PIAUÍ,RIBEIRO GONÇALVES,Cerrado,2016,4,26
518,200153155,86cb816e-5aba-11e8-911c-28924ad12c5c,-12.696,-50.789,2016-04-26 17:47:00,Brasil,MATO GROSSO,NOVO SANTO ANTÔNIO,Cerrado,2016,4,26
522,200416185,8499b324-5aba-11e8-911c-28924ad12c5c,-11.995,-54.818,2016-04-30 17:23:00,Brasil,MATO GROSSO,SANTA CARMEM,Amazônia,2016,4,30
569,200416159,4c54698b-5abb-11e8-911c-28924ad12c5c,-16.362,-49.891,2016-04-30 17:22:00,Brasil,GOIÁS,ANICUNS,Cerrado,2016,4,30
570,200416027,596869b3-5abb-11e8-911c-28924ad12c5c,-30.342,-51.976,2016-04-30 17:18:00,Brasil,RIO GRANDE DO SUL,SÃO JERÔNIMO,Pampa,2016,4,30
574,200416033,596869b9-5abb-11e8-911c-28924ad12c5c,-25.932,-50.239,2016-04-30 17:19:00,Brasil,PARANÁ,SÃO MATEUS DO SUL,Mata Atlântica,2016,4,30
575,200416072,596869bb-5abb-11e8-911c-28924ad12c5c,-22.325,-54.914,2016-04-30 17:20:00,Brasil,MATO GROSSO DO SUL,DOURADOS,Cerrado,2016,4,30
576,200416098,4c54695f-5abb-11e8-911c-28924ad12c5c,-22.314,-52.514,2016-04-30 17:20:00,Brasil,SÃO PAULO,TEODORO SAMPAIO,Mata Atlântica,2016,4,30
581,200416114,4c546969-5abb-11e8-911c-28924ad12c5c,-18.869,-48.891,2016-04-30 17:21:00,Brasil,MINAS GERAIS,MONTE ALEGRE DE MINAS,Cerrado,2016,4,30
591,200416047,4c54694c-5abb-11e8-911c-28924ad12c5c,-26.911,-52.196,2016-04-30 17:19:00,Brasil,SANTA CATARINA,FAXINAL DOS GUEDES,Mata Atlântica,2016,4,30
599,200475027,4c54f4b9-5abb-11e8-911c-28924ad12c5c,-18.358,-50.413,2016-05-01 16:26:00,Brasil,GOIÁS,QUIRINÓPOLIS,Mata Atlântica,2016,5,1
600,200475043,4c54f4c7-5abb-11e8-911c-28924ad12c5c,-11.07,-38.237,2016-05-01 16:27:00,Brasil,BAHIA,ITAPICURU,Caatinga,2016,5,1
605,200475026,4c54f4b8-5abb-11e8-911c-28924ad12c5c,-16.977,-40.961,2016-05-01 16:26:00,Brasil,MINAS GERAIS,ÁGUAS FORMOSAS,Mata Atlântica,2016,5,1
606,200478349,849a41e8-5aba-11e8-911c-28924ad12c5c,-16.23,-58.638,2016-05-01 18:05:00,Brasil,MATO GROSSO,CÁCERES,Pantanal,2016,5,1
613,200475060,849a41df-5aba-11e8-911c-28924ad12c5c,-10.356,-46.897,2016-05-01 16:28:00,Brasil,TOCANTINS,MATEIROS,Cerrado,2016,5,1
614,200475061,849a41e0-5aba-11e8-911c-28924ad12c5c,-8.887,-46.673,2016-05-01 16:28:00,Brasil,MARANHÃO,BALSAS,Cerrado,2016,5,1
616,200475080,849a41e2-5aba-11e8-911c-28924ad12c5c,-3.148,-46.95,2016-05-01 16:30:00,Brasil,PARÁ,PARAGOMINAS,Amazônia,2016,5,1
619,200478805,849a41fb-5aba-11e8-911c-28924ad12c5c,-8.168,-70.357,2016-05-01 18:07:00,Brasil,ACRE,FEIJÓ,Amazônia,2016,5,1
620,197622701,8494cdad-5aba-11e8-911c-28924ad12c5c,-11.918,-54.917,2016-03-22 17:17:00,Brasil,MATO GROSSO,SANTA CARMEM,Amazônia,2016,3,22
626,197622707,8494cdb3-5aba-11e8-911c-28924ad12c5c,-8.321,-48.324,2016-03-22 17:17:00,Brasil,TOCANTINS,BRASILÂNDIA DO TOCANTINS,Cerrado,2016,3,22
630,200149171,8499b2d3-5aba-11e8-911c-28924ad12c5c,-7.819,-47.061,2016-04-26 16:10:00,Brasil,MARANHÃO,CAROLINA,Cerrado,2016,4,26
633,198366645,86cb7fd9-5aba-11e8-911c-28924ad12c5c,-8.875,-46.07,2016-04-01 16:16:00,Brasil,MARANHÃO,ALTO PARNAÍBA,Cerrado,2016,4,1
636,198369586,86cb7fdc-5aba-11e8-911c-28924ad12c5c,-11.822,-56.161,2016-04-01 17:54:00,Brasil,MATO GROSSO,PORTO DOS GAÚCHOS,Amazônia,2016,4,1
639,198486481,5962f584-5abb-11e8-911c-28924ad12c5c,-17.359,-50.48,2016-04-03 17:40:00,Brasil,GOIÁS,ACREÚNA,Cerrado,2016,4,3
644,200416198,8499b330-5aba-11e8-911c-28924ad12c5c,-9.626,-50.588,2016-04-30 17:23:00,Brasil,PARÁ,SANTANA DO ARAGUAIA,Amazônia,2016,4,30
651,200589177,849a426e-5aba-11e8-911c-28924ad12c5c,-13.25,-53.426,2016-05-03 17:53:00,Brasil,MATO GROSSO,GAÚCHA DO NORTE,Amazônia,2016,5,3
657,200585629,5b0895bd-5abb-11e8-911c-28924ad12c5c,-15.515,-46.926,2016-05-03 16:14:00,Brasil,MINAS GERAIS,BURITIS,Cerrado,2016,5,3
658,200348287,86cb81cc-5aba-11e8-911c-28924ad12c5c,-11.665,-54.434,2016-04-29 16:40:00,Brasil,MATO GROSSO,UNIÃO DO SUL,Amazônia,2016,4,29
662,200348299,86cb81d0-5aba-11e8-911c-28924ad12c5c,-10.154,-46.474,2016-04-29 16:40:00,Brasil,TOCANTINS,SÃO FÉLIX DO TOCANTINS,Cerrado,2016,4,29
663,200348321,4c4e6881-5abb-11e8-911c-28924ad12c5c,-11.89,-40.525,2016-04-29 16:40:00,Brasil,BAHIA,MUNDO NOVO,Caatinga,2016,4,29
665,200348249,5967edd0-5abb-11e8-911c-28924ad12c5c,-18.72,-46.967,2016-04-29 16:38:00,Brasil,MINAS GERAIS,COROMANDEL,Cerrado,2016,4,29
667,200354643,86cb81e7-5aba-11e8-911c-28924ad12c5c,-9.287,-63.469,2016-04-29 18:19:00,Brasil,RONDÔNIA,CANDEIAS DO JAMARI,Amazônia,2016,4,29
669,200348312,4c4e687e-5abb-11e8-911c-28924ad12c5c,-9.961,-37.347,2016-04-29 16:40:00,Brasil,SERGIPE,PORTO DA FOLHA,Caatinga,2016,4,29
689,200348257,5967edd7-5abb-11e8-911c-28924ad12c5c,-16.51,-49.898,2016-04-29 16:39:00,Brasil,GOIÁS,ANICUNS,Cerrado,2016,4,29
692,200348328,59686788-5abb-11e8-911c-28924ad12c5c,-10.513,-45.098,2016-04-29 16:40:00,Brasil,PIAUÍ,CORRENTE,Cerrado,2016,4,29
693,200348340,59686789-5abb-11e8-911c-28924ad12c5c,-6.61,-43.826,2016-04-29 16:41:00,Brasil,MARANHÃO,NOVA IORQUE,Cerrado,2016,4,29
694,200348342,5968678a-5abb-11e8-911c-28924ad12c5c,-5.466,-40.314,2016-04-29 16:41:00,Brasil,CEARÁ,INDEPENDÊNCIA,Caatinga,2016,4,29
701,200348254,5967edd5-5abb-11e8-911c-28924ad12c5c,-15.637,-47.896,2016-04-29 16:39:00,Brasil,DISTRITO FEDERAL,BRASÍLIA,Cerrado,2016,4,29
703,198927551,86cb804d-5aba-11e8-911c-28924ad12c5c,-9.685,-47.304,2016-04-09 17:05:00,Brasil,TOCANTINS,RIO SONO,Cerrado,2016,4,9
704,198927664,8499af9d-5aba-11e8-911c-28924ad12c5c,2.743,-61.373,2016-04-09 17:09:00,Brasil,RORAIMA,MUCAJAÍ,Amazônia,2016,4,9
707,198844727,5963f423-5abb-11e8-911c-28924ad12c5c,-17.223,-39.357,2016-04-08 16:20:00,Brasil,BAHIA,PRADO,Mata Atlântica,2016,4,8
711,200874309,596a15cb-5abb-11e8-911c-28924ad12c5c,-12.755,-45.139,2016-05-08 16:33:00,Brasil,BAHIA,SÃO DESIDÉRIO,Cerrado,2016,5,8
712,200874349,596a15cc-5abb-11e8-911c-28924ad12c5c,-6.432,-43.701,2016-05-08 16:35:00,Brasil,MARANHÃO,SÃO JOÃO DOS PATOS,Cerrado,2016,5,8
715,200874310,596a15db-5abb-11e8-911c-28924ad12c5c,-12.26,-51.919,2016-05-08 16:34:00,Brasil,MATO GROSSO,BOM JESUS DO ARAGUAIA,Amazônia,2016,5,8
716,200874311,596a15dc-5abb-11e8-911c-28924ad12c5c,-10.599,-49.871,2016-05-08 16:34:00,Brasil,TOCANTINS,LAGOA DA CONFUSÃO,Cerrado,2016,5,8
719,200531781,849a4228-5aba-11e8-911c-28924ad12c5c,-12.227,-54.462,2016-05-02 17:11:00,Brasil,MATO GROSSO,FELIZ NATAL,Amazônia,2016,5,2
727,200531789,849a4230-5aba-11e8-911c-28924ad12c5c,-11.819,-49.008,2016-05-02 17:11:00,Brasil,TOCANTINS,GURUPI,Cerrado,2016,5,2
728,197903228,8499272d-5aba-11e8-911c-28924ad12c5c,2.266,-61.246,2016-03-25 17:51:00,Brasil,RORAIMA,IRACEMA,Amazônia,2016,3,25
743,200531599,5968fb66-5abb-11e8-911c-28924ad12c5c,-27.234,-48.674,2016-05-02 17:06:00,Brasil,SANTA CATARINA,TIJUCAS,Mata Atlântica,2016,5,2
746,200531602,5968fb69-5abb-11e8-911c-28924ad12c5c,-25.718,-49.926,2016-05-02 17:07:00,Brasil,PARANÁ,LAPA,Mata Atlântica,2016,5,2
749,200531648,4c572fc9-5abb-11e8-911c-28924ad12c5c,-22.645,-48.449,2016-05-02 17:08:00,Brasil,SÃO PAULO,SÃO MANUEL,Cerrado,2016,5,2
760,200531664,4c572fd9-5abb-11e8-911c-28924ad12c5c,-20.131,-48.939,2016-05-02 17:08:00,Brasil,MINAS GERAIS,FRUTAL,Cerrado,2016,5,2
765,200531710,4c572ffc-5abb-11e8-911c-28924ad12c5c,-19.857,-56.967,2016-05-02 17:09:00,Brasil,MATO GROSSO DO SUL,MIRANDA,Cerrado,2016,5,2
774,199263175,4c37f7f3-5abb-11e8-911c-28924ad12c5c,-14.036,-49.38,2016-04-13 16:40:00,Brasil,GOIÁS,MARA ROSA,Cerrado,2016,4,13
775,199348672,596593ee-5abb-11e8-911c-28924ad12c5c,-13.555,-48.713,2016-04-14 17:22:00,Brasil,GOIÁS,TROMBAS,Cerrado,2016,4,14
776,199348674,596593ef-5abb-11e8-911c-28924ad12c5c,-17.662,-54.868,2016-04-14 17:22:00,Brasil,MATO GROSSO DO SUL,SONORA,Cerrado,2016,4,14
777,199348673,59659406-5abb-11e8-911c-28924ad12c5c,-15.857,-53.814,2016-04-14 17:22:00,Brasil,MATO GROSSO,POXORÉU,Cerrado,2016,4,14
781,199347163,5b081704-5abb-11e8-911c-28924ad12c5c,-15.706,-39.567,2016-04-14 15:44:00,Brasil,BAHIA,POTIRAGUÁ,Mata Atlântica,2016,4,14
782,199347164,5b081705-5abb-11e8-911c-28924ad12c5c,-11.251,-37.821,2016-04-14 15:45:00,Brasil,SERGIPE,ITABAIANINHA,Caatinga,2016,4,14
783,199092406,59650a7b-5abb-11e8-911c-28924ad12c5c,-19.746,-48.177,2016-04-11 16:50:00,Brasil,MINAS GERAIS,UBERABA,Cerrado,2016,4,11
794,200531850,849a4264-5aba-11e8-911c-28924ad12c5c,-8.662,-54.655,2016-05-02 17:12:00,Brasil,PARÁ,ALTAMIRA,Amazônia,2016,5,2
801,199838272,8499b1d2-5aba-11e8-911c-28924ad12c5c,-12.322,-48.862,2016-04-21 17:29:00,Brasil,TOCANTINS,PEIXE,Cerrado,2016,4,21
802,199838273,8499b1d3-5aba-11e8-911c-28924ad12c5c,-13.669,-54.125,2016-04-21 17:29:00,Brasil,MATO GROSSO,PARANATINGA,Cerrado,2016,4,21
816,199431211,59659482-5abb-11e8-911c-28924ad12c5c,-26.239,-51.916,2016-04-15 18:02:00,Brasil,PARANÁ,CORONEL DOMINGOS SOARES,Mata Atlântica,2016,4,15
817,200807420,5b08963a-5abb-11e8-911c-28924ad12c5c,-10.249,-42.567,2016-05-07 15:51:00,Brasil,BAHIA,PILÃO ARCADO,Caatinga,2016,5,7
818,200807421,5b08963b-5abb-11e8-911c-28924ad12c5c,-8.03,-38.28,2016-05-07 15:51:00,Brasil,PERNAMBUCO,SERRA TALHADA,Caatinga,2016,5,7
820,200807423,5b08963d-5abb-11e8-911c-28924ad12c5c,-7.049,-43.414,2016-05-07 15:52:00,Brasil,PIAUÍ,JERUMENHA,Caatinga,2016,5,7
822,200810389,86cb822f-5aba-11e8-911c-28924ad12c5c,-11.678,-54.784,2016-05-07 17:29:00,Brasil,MATO GROSSO,CLÁUDIA,Amazônia,2016,5,7
824,200810381,86cb822c-5aba-11e8-911c-28924ad12c5c,-10.47,-49.901,2016-05-07 17:29:00,Brasil,TOCANTINS,PIUM,Cerrado,2016,5,7
827,200810495,86cb823c-5aba-11e8-911c-28924ad12c5c,-2.81,-54.38,2016-05-07 17:31:00,Brasil,PARÁ,MOJUÍ DOS CAMPOS,Amazônia,2016,5,7
840,199631079,5b081787-5abb-11e8-911c-28924ad12c5c,-25.478,-51.323,2016-04-18 16:55:00,Brasil,PARANÁ,INÁCIO MARTINS,Mata Atlântica,2016,4,18
841,199631080,5b081788-5abb-11e8-911c-28924ad12c5c,-23.708,-48.011,2016-04-18 16:55:00,Brasil,SÃO PAULO,ITAPETININGA,Mata Atlântica,2016,4,18
842,199631081,5b081789-5abb-11e8-911c-28924ad12c5c,-22.902,-43.668,2016-04-18 16:55:00,Brasil,RIO DE JANEIRO,RIO DE JANEIRO,Mata Atlântica,2016,4,18
843,199631083,5b08178a-5abb-11e8-911c-28924ad12c5c,-23.788,-54.476,2016-04-18 16:55:00,Brasil,MATO GROSSO DO SUL,JAPORÃ,Mata Atlântica,2016,4,18
845,199631165,8499b0d8-5aba-11e8-911c-28924ad12c5c,-13.284,-53.624,2016-04-18 16:58:00,Brasil,MATO GROSSO,GAÚCHA DO NORTE,Amazônia,2016,4,18
846,199510071,8499b08d-5aba-11e8-911c-28924ad12c5c,-11.89,-56.433,2016-04-16 17:11:00,Brasil,MATO GROSSO,PORTO DOS GAÚCHOS,Amazônia,2016,4,16
849,200588909,5968fcc3-5abb-11e8-911c-28924ad12c5c,-23.196,-53.224,2016-05-03 17:50:00,Brasil,PARANÁ,SANTA ISABEL DO IVAÍ,Mata Atlântica,2016,5,3
851,200588951,5968fcce-5abb-11e8-911c-28924ad12c5c,-23.724,-54.889,2016-05-03 17:50:00,Brasil,MATO GROSSO DO SUL,TACURU,Mata Atlântica,2016,5,3
852,200589299,86cb81fd-5aba-11e8-911c-28924ad12c5c,-12.207,-64.388,2016-05-03 17:54:00,Brasil,RONDÔNIA,COSTA MARQUES,Amazônia,2016,5,3
854,200588715,4c592575-5abb-11e8-911c-28924ad12c5c,-29.34,-55.787,2016-05-03 17:49:00,Brasil,RIO GRANDE DO SUL,ITAQUI,Pampa,2016,5,3
855,199896737,8499b204-5aba-11e8-911c-28924ad12c5c,-13.347,-47.758,2016-04-22 16:34:00,Brasil,TOCANTINS,PARANÃ,Cerrado,2016,4,22
856,200747260,4c5bf8c4-5abb-11e8-911c-28924ad12c5c,-9.576,-47.134,2016-05-06 16:46:00,Brasil,TOCANTINS,RIO SONO,Cerrado,2016,5,6
857,200747181,596a13f0-5abb-11e8-911c-28924ad12c5c,-15.196,-44.367,2016-05-06 16:45:00,Brasil,MINAS GERAIS,JANUÁRIA,Cerrado,2016,5,6
860,200747193,596a13f3-5abb-11e8-911c-28924ad12c5c,-14.551,-40.05,2016-05-06 16:45:00,Brasil,BAHIA,IGUAÍ,Mata Atlântica,2016,5,6
863,200747175,4c5bf8af-5abb-11e8-911c-28924ad12c5c,-20.736,-49.439,2016-05-06 16:44:00,Brasil,SÃO PAULO,SÃO JOSÉ DO RIO PRETO,Cerrado,2016,5,6
865,200747177,4c5bf8b1-5abb-11e8-911c-28924ad12c5c,-19.393,-51.658,2016-05-06 16:44:00,Brasil,MATO GROSSO DO SUL,PARANAÍBA,Cerrado,2016,5,6
873,200747142,4c5bf895-5abb-11e8-911c-28924ad12c5c,-22.578,-42.132,2016-05-06 16:43:00,Brasil,RIO DE JANEIRO,CABO FRIO,Mata Atlântica,2016,5,6
874,199959351,8499b26b-5aba-11e8-911c-28924ad12c5c,3.948,-61.229,2016-04-23 17:22:00,Brasil,RORAIMA,AMAJARI,Amazônia,2016,4,23
875,199959248,86cb812d-5aba-11e8-911c-28924ad12c5c,-12.453,-47.875,2016-04-23 17:17:00,Brasil,TOCANTINS,PARANÃ,Cerrado,2016,4,23
876,199959249,86cb812e-5aba-11e8-911c-28924ad12c5c,-11.567,-51.069,2016-04-23 17:17:00,Brasil,MATO GROSSO,SÃO FÉLIX DO ARAGUAIA,Cerrado,2016,4,23
891,199958822,4c461c48-5abb-11e8-911c-28924ad12c5c,-22.65,-51.955,2016-04-23 17:14:00,Brasil,PARANÁ,SANTA INÊS,Mata Atlântica,2016,4,23
892,200747282,849a431d-5aba-11e8-911c-28924ad12c5c,-8.813,-50.254,2016-05-06 16:47:00,Brasil,PARÁ,SANTA MARIA DAS BARREIRAS,Amazônia,2016,5,6
895,200294259,86cb81bd-5aba-11e8-911c-28924ad12c5c,3.294,-61.212,2016-04-28 17:40:00,Brasil,RORAIMA,ALTO ALEGRE,Amazônia,2016,4,28
897,200290814,4c4de5cf-5abb-11e8-911c-28924ad12c5c,-14.418,-40.0,2016-04-28 15:56:00,Brasil,BAHIA,DÁRIO MEIRA,Mata Atlântica,2016,4,28
898,200294013,86cb81a7-5aba-11e8-911c-28924ad12c5c,-14.301,-58.453,2016-04-28 17:35:00,Brasil,MATO GROSSO,TANGARÁ DA SERRA,Cerrado,2016,4,28
900,200294015,86cb81a9-5aba-11e8-911c-28924ad12c5c,-10.912,-49.65,2016-04-28 17:35:00,Brasil,TOCANTINS,LAGOA DA CONFUSÃO,Cerrado,2016,4,28
911,196218083,86caeed2-5aba-11e8-911c-28924ad12c5c,-8.099,-47.774,2016-02-29 16:16:00,Brasil,TOCANTINS,GOIATINS,Cerrado,2016,2,29
912,200214686,5967ebab-5abb-11e8-911c-28924ad12c5c,-5.655,-43.454,2016-04-27 16:54:00,Brasil,MARANHÃO,PARNARAMA,Cerrado,2016,4,27
913,200214543,5967ebb0-5abb-11e8-911c-28924ad12c5c,-9.483,-49.912,2016-04-27 16:53:00,Brasil,TOCANTINS,CASEARA,Cerrado,2016,4,27
914,200214478,5b081904-5abb-11e8-911c-28924ad12c5c,-23.746,-50.314,2016-04-27 16:49:00,Brasil,PARANÁ,IBAITI,Mata Atlântica,2016,4,27
915,200214479,5b081905-5abb-11e8-911c-28924ad12c5c,-21.204,-41.126,2016-04-27 16:49:00,Brasil,ESPÍRITO SANTO,PRESIDENTE KENNEDY,Mata Atlântica,2016,4,27
925,200214520,5967eba3-5abb-11e8-911c-28924ad12c5c,-13.109,-44.812,2016-04-27 16:52:00,Brasil,BAHIA,CORRENTINA,Cerrado,2016,4,27
932,200078415,4c483ed8-5abb-11e8-911c-28924ad12c5c,-14.683,-50.2,2016-04-25 17:04:00,Brasil,GOIÁS,CRIXÁS,Cerrado,2016,4,25
933,200078417,4c483ed9-5abb-11e8-911c-28924ad12c5c,-14.429,-44.779,2016-04-25 17:04:00,Brasil,BAHIA,COCOS,Cerrado,2016,4,25
944,200078342,4c483ea8-5abb-11e8-911c-28924ad12c5c,-22.481,-44.71,2016-04-25 17:02:00,Brasil,RIO DE JANEIRO,RESENDE,Mata Atlântica,2016,4,25
951,196577389,8494cb84-5aba-11e8-911c-28924ad12c5c,2.466,-61.525,2016-03-06 17:21:00,Brasil,RORAIMA,MUCAJAÍ,Amazônia,2016,3,6
955,196576763,4c06438a-5abb-11e8-911c-28924ad12c5c,-23.569,-51.725,2016-03-06 17:13:00,Brasil,PARANÁ,MANDAGUARI,Mata Atlântica,2016,3,6
956,196696022,8494cbdb-5aba-11e8-911c-28924ad12c5c,-10.72,-52.013,2016-03-08 17:04:00,Brasil,MATO GROSSO,PORTO ALEGRE DO NORTE,Amazônia,2016,3,8
958,196696024,8494cbdd-5aba-11e8-911c-28924ad12c5c,-10.462,-48.568,2016-03-08 17:04:00,Brasil,TOCANTINS,PORTO NACIONAL,Cerrado,2016,3,8
960,200214562,86cb8186-5aba-11e8-911c-28924ad12c5c,-8.364,-49.842,2016-04-27 16:53:00,Brasil,PARÁ,SANTA MARIA DAS BARREIRAS,Amazônia,2016,4,27
972,200214507,5967eba2-5abb-11e8-911c-28924ad12c5c,-17.132,-40.784,2016-04-27 16:51:00,Brasil,MINAS GERAIS,MACHACALIS,Mata Atlântica,2016,4,27
973,196463313,84943937-5aba-11e8-911c-28924ad12c5c,1.348,-60.967,2016-03-04 17:32:00,Brasil,RORAIMA,CARACARAÍ,Amazônia,2016,3,4
974,196463314,84943938-5aba-11e8-911c-28924ad12c5c,0.103,-63.339,2016-03-04 17:32:00,Brasil,AMAZONAS,BARCELOS,Amazônia,2016,3,4
991,205993544,849e2872-5aba-11e8-911c-28924ad12c5c,-11.512,-56.745,2016-07-15 17:47:00,Brasil,MATO GROSSO,TABAPORÃ,Amazônia,2016,7,15
993,205993521,849e2860-5aba-11e8-911c-28924ad12c5c,-12.121,-60.462,2016-07-15 17:47:00,Brasil,RONDÔNIA,PIMENTA BUENO,Amazônia,2016,7,15
1001,205993517,849e285c-5aba-11e8-911c-28924ad12c5c,-8.726,-54.992,2016-07-15 17:47:00,Brasil,PARÁ,ALTAMIRA,Amazônia,2016,7,15
1002,205993518,849e285d-5aba-11e8-911c-28924ad12c5c,-10.852,-68.264,2016-07-15 17:47:00,Brasil,ACRE,XAPURI,Amazônia,2016,7,15
1004,205985532,849e27c0-5aba-11e8-911c-28924ad12c5c,-9.807,-46.745,2016-07-15 16:09:00,Brasil,TOCANTINS,LIZARDA,Cerrado,2016,7,15
1005,205985540,849e27c1-5aba-11e8-911c-28924ad12c5c,-8.835,-46.107,2016-07-15 16:09:00,Brasil,MARANHÃO,ALTO PARNAÍBA,Cerrado,2016,7,15
1008,205993638,849e28b7-5aba-11e8-911c-28924ad12c5c,-3.737,-61.735,2016-07-15 17:49:00,Brasil,AMAZONAS,ANORI,Amazônia,2016,7,15
1018,204116158,849bda37-5aba-11e8-911c-28924ad12c5c,-8.071,-61.049,2016-06-24 17:29:00,Brasil,AMAZONAS,NOVO ARIPUANÃ,Amazônia,2016,6,24
1019,204116156,849bda35-5aba-11e8-911c-28924ad12c5c,-10.063,-58.358,2016-06-24 17:29:00,Brasil,MATO GROSSO,COTRIGUAÇU,Amazônia,2016,6,24
1068,205074889,849d07d3-5aba-11e8-911c-28924ad12c5c,-5.457,-45.623,2016-07-05 17:11:00,Brasil,MARANHÃO,JENIPAPO DOS VIEIRAS,Cerrado,2016,7,5
1069,205074890,849d07d4-5aba-11e8-911c-28924ad12c5c,-5.837,-57.387,2016-07-05 17:11:00,Brasil,PARÁ,JACAREACANGA,Amazônia,2016,7,5
1073,205074894,849d07d8-5aba-11e8-911c-28924ad12c5c,-7.863,-47.879,2016-07-05 17:11:00,Brasil,TOCANTINS,GOIATINS,Cerrado,2016,7,5
1079,205074773,849d0775-5aba-11e8-911c-28924ad12c5c,-11.571,-52.613,2016-07-05 17:10:00,Brasil,MATO GROSSO,SÃO FÉLIX DO ARAGUAIA,Amazônia,2016,7,5
1080,204706460,849c8048-5aba-11e8-911c-28924ad12c5c,-16.257,-56.876,2016-07-01 17:33:00,Brasil,MATO GROSSO,POCONÉ,Pantanal,2016,7,1
1081,204980507,4cdcfc2a-5abb-11e8-911c-28924ad12c5c,-18.877,-45.766,2016-07-04 16:25:00,Brasil,MINAS GERAIS,TIROS,Cerrado,2016,7,4
1082,204980633,849d06c7-5aba-11e8-911c-28924ad12c5c,-5.482,-45.596,2016-07-04 16:28:00,Brasil,MARANHÃO,JENIPAPO DOS VIEIRAS,Cerrado,2016,7,4
1088,204980610,849d06b9-5aba-11e8-911c-28924ad12c5c,-8.835,-50.26,2016-07-04 16:28:00,Brasil,PARÁ,SANTA MARIA DAS BARREIRAS,Amazônia,2016,7,4
1091,204980617,849d06bc-5aba-11e8-911c-28924ad12c5c,-8.005,-47.267,2016-07-04 16:28:00,Brasil,TOCANTINS,GOIATINS,Cerrado,2016,7,4
1095,204810212,849c812d-5aba-11e8-911c-28924ad12c5c,-8.098,-47.488,2016-07-02 16:40:00,Brasil,TOCANTINS,GOIATINS,Cerrado,2016,7,2
1096,205614402,4cf0ca75-5abb-11e8-911c-28924ad12c5c,-23.347,-50.324,2016-07-11 16:30:00,Brasil,PARANÁ,ABATIÁ,Mata Atlântica,2016,7,11
1097,205614404,4cf0ca76-5abb-11e8-911c-28924ad12c5c,-20.291,-40.697,2016-07-11 16:30:00,Brasil,ESPÍRITO SANTO,DOMINGOS MARTINS,Mata Atlântica,2016,7,11
1098,205614405,4cf0ca77-5abb-11e8-911c-28924ad12c5c,-23.033,-46.588,2016-07-11 16:30:00,Brasil,SÃO PAULO,ATIBAIA,Mata Atlântica,2016,7,11
1099,205614406,4cf0ca78-5abb-11e8-911c-28924ad12c5c,-21.274,-43.876,2016-07-11 16:30:00,Brasil,MINAS GERAIS,BARBACENA,Mata Atlântica,2016,7,11
1106,205614709,849d8eb9-5aba-11e8-911c-28924ad12c5c,-3.414,-44.113,2016-07-11 16:35:00,Brasil,MARANHÃO,ITAPECURU MIRIM,Cerrado,2016,7,11
1107,205796804,4cf640b4-5abb-11e8-911c-28924ad12c5c,-16.689,-47.595,2016-07-13 16:19:00,Brasil,GOIÁS,CRISTALINA,Cerrado,2016,7,13
1108,205436708,4cecf396-5abb-11e8-911c-28924ad12c5c,-21.281,-47.486,2016-07-09 16:42:00,Brasil,SÃO PAULO,SERRA AZUL,Cerrado,2016,7,9
1109,205436709,4cecf397-5abb-11e8-911c-28924ad12c5c,-22.658,-43.231,2016-07-09 16:42:00,Brasil,RIO DE JANEIRO,DUQUE DE CAXIAS,Mata Atlântica,2016,7,9
1112,205436715,4cecf39a-5abb-11e8-911c-28924ad12c5c,-22.167,-45.065,2016-07-09 16:42:00,Brasil,MINAS GERAIS,SÃO SEBASTIÃO DO RIO VERDE,Mata Atlântica,2016,7,9
1117,205709369,4cf499df-5abb-11e8-911c-28924ad12c5c,-22.746,-46.995,2016-07-12 17:13:00,Brasil,SÃO PAULO,CAMPINAS,Mata Atlântica,2016,7,12
1118,205709370,4cf499e0-5abb-11e8-911c-28924ad12c5c,-21.902,-46.528,2016-07-12 17:13:00,Brasil,MINAS GERAIS,POÇOS DE CALDAS,Mata Atlântica,2016,7,12
1121,205709373,4cf499e3-5abb-11e8-911c-28924ad12c5c,-23.277,-50.057,2016-07-12 17:13:00,Brasil,PARANÁ,SANTO ANTÔNIO DA PLATINA,Mata Atlântica,2016,7,12
1129,205709171,4cf4992b-5abb-11e8-911c-28924ad12c5c,-27.743,-49.211,2016-07-12 17:11:00,Brasil,SANTA CATARINA,ALFREDO WAGNER,Mata Atlântica,2016,7,12
1130,200945739,849a4389-5aba-11e8-911c-28924ad12c5c,-12.894,-61.53,2016-05-09 17:17:00,Brasil,RONDÔNIA,PIMENTEIRAS DO OESTE,Amazônia,2016,5,9
1131,200945740,849a438a-5aba-11e8-911c-28924ad12c5c,-12.736,-56.584,2016-05-09 17:17:00,Brasil,MATO GROSSO,TAPURAH,Amazônia,2016,5,9
1132,200945741,849a438b-5aba-11e8-911c-28924ad12c5c,-10.821,-49.901,2016-05-09 17:17:00,Brasil,TOCANTINS,LAGOA DA CONFUSÃO,Cerrado,2016,5,9
1138,200692207,849a42f2-5aba-11e8-911c-28924ad12c5c,-15.119,-55.963,2016-05-05 17:40:00,Brasil,MATO GROSSO,CUIABÁ,Cerrado,2016,5,5
1139,200636046,4c5a419d-5abb-11e8-911c-28924ad12c5c,-23.055,-54.143,2016-05-04 16:55:00,Brasil,MATO GROSSO DO SUL,NAVIRAÍ,Mata Atlântica,2016,5,4
1140,200636047,4c5a419e-5abb-11e8-911c-28924ad12c5c,-23.758,-48.563,2016-05-04 16:55:00,Brasil,SÃO PAULO,BURI,Mata Atlântica,2016,5,4
1146,200636180,849a42d1-5aba-11e8-911c-28924ad12c5c,-11.662,-51.247,2016-05-04 16:58:00,Brasil,MATO GROSSO,SÃO FÉLIX DO ARAGUAIA,Cerrado,2016,5,4
1149,200636183,849a42d4-5aba-11e8-911c-28924ad12c5c,-11.357,-49.645,2016-05-04 16:58:00,Brasil,TOCANTINS,DUERÉ,Cerrado,2016,5,4
1156,201103373,4c6d300e-5abb-11e8-911c-28924ad12c5c,-11.155,-46.133,2016-05-11 17:04:00,Brasil,BAHIA,FORMOSA DO RIO PRETO,Cerrado,2016,5,11
1157,201103374,4c6d300f-5abb-11e8-911c-28924ad12c5c,-14.354,-49.125,2016-05-11 17:04:00,Brasil,GOIÁS,CAMPINORTE,Cerrado,2016,5,11
1164,201219303,86cb827d-5aba-11e8-911c-28924ad12c5c,-9.296,-49.747,2016-05-13 16:53:00,Brasil,TOCANTINS,CASEARA,Cerrado,2016,5,13
1169,201219142,86cb8265-5aba-11e8-911c-28924ad12c5c,-17.313,-54.468,2016-05-13 16:51:00,Brasil,MATO GROSSO,ITIQUIRA,Cerrado,2016,5,13
1178,201032385,86cb8253-5aba-11e8-911c-28924ad12c5c,3.825,-59.605,2016-05-10 18:04:00,Brasil,RORAIMA,NORMANDIA,Amazônia,2016,5,10
1180,201022256,849a43ce-5aba-11e8-911c-28924ad12c5c,-10.782,-49.434,2016-05-10 16:22:00,Brasil,TOCANTINS,CRISTALÂNDIA,Cerrado,2016,5,10
1187,201316739,849a44c0-5aba-11e8-911c-28924ad12c5c,-6.064,-47.277,2016-05-15 16:41:00,Brasil,MARANHÃO,RIBAMAR FIQUENE,Cerrado,2016,5,15
1188,201316740,849a44c1-5aba-11e8-911c-28924ad12c5c,-7.892,-47.726,2016-05-15 16:41:00,Brasil,TOCANTINS,GOIATINS,Cerrado,2016,5,15
1194,201316749,849a44c7-5aba-11e8-911c-28924ad12c5c,-4.45,-48.012,2016-05-15 16:42:00,Brasil,PARÁ,RONDON DO PARÁ,Amazônia,2016,5,15
1197,201316666,596b3c5b-5abb-11e8-911c-28924ad12c5c,-22.779,-47.075,2016-05-15 16:37:00,Brasil,SÃO PAULO,CAMPINAS,Cerrado,2016,5,15
1198,205802611,86edae60-5aba-11e8-911c-28924ad12c5c,-9.669,-64.564,2016-07-13 18:00:00,Brasil,RONDÔNIA,PORTO VELHO,Amazônia,2016,7,13
1201,201681377,849a45b0-5aba-11e8-911c-28924ad12c5c,-11.356,-49.692,2016-05-20 16:58:00,Brasil,TOCANTINS,DUERÉ,Cerrado,2016,5,20
1204,201681380,849a45b3-5aba-11e8-911c-28924ad12c5c,-9.036,-46.763,2016-05-20 16:58:00,Brasil,MARANHÃO,BALSAS,Cerrado,2016,5,20
1209,201681301,849a4569-5aba-11e8-911c-28924ad12c5c,-12.793,-54.631,2016-05-20 16:58:00,Brasil,MATO GROSSO,NOVA UBIRATÃ,Amazônia,2016,5,20
1210,202193794,5b09160d-5abb-11e8-911c-28924ad12c5c,-21.389,-41.014,2016-05-29 16:49:00,Brasil,RIO DE JANEIRO,SÃO FRANCISCO DE ITABAPOANA,Mata Atlântica,2016,5,29
1211,202148484,849acbce-5aba-11e8-911c-28924ad12c5c,-4.397,-46.275,2016-05-28 16:11:00,Brasil,MARANHÃO,BURITICUPU,Amazônia,2016,5,28
1212,202150776,849acbcf-5aba-11e8-911c-28924ad12c5c,-17.161,-54.717,2016-05-28 17:45:00,Brasil,MATO GROSSO,ITIQUIRA,Cerrado,2016,5,28
1213,202238926,849acc40-5aba-11e8-911c-28924ad12c5c,-11.425,-57.896,2016-05-30 17:35:00,Brasil,MATO GROSSO,JUARA,Amazônia,2016,5,30
1214,202238927,849acc41-5aba-11e8-911c-28924ad12c5c,-9.671,-50.342,2016-05-30 17:35:00,Brasil,PARÁ,SANTANA DO ARAGUAIA,Amazônia,2016,5,30
1216,201988609,4c8523e3-5abb-11e8-911c-28924ad12c5c,-22.546,-52.132,2016-05-25 17:13:00,Brasil,PARANÁ,JARDIM OLINDA,Mata Atlântica,2016,5,25
1217,201988610,4c8523e4-5abb-11e8-911c-28924ad12c5c,-22.549,-44.424,2016-05-25 17:13:00,Brasil,RIO DE JANEIRO,RESENDE,Mata Atlântica,2016,5,25
1220,201988990,596d89f5-5abb-11e8-911c-28924ad12c5c,-16.418,-51.759,2016-05-25 17:15:00,Brasil,GOIÁS,PIRANHAS,Cerrado,2016,5,25
1222,201989020,596d89fa-5abb-11e8-911c-28924ad12c5c,-13.402,-46.04,2016-05-25 17:15:00,Brasil,BAHIA,CORRENTINA,Cerrado,2016,5,25
1223,202346966,86ee359e-5aba-11e8-911c-28924ad12c5c,-14.293,-52.951,2016-06-01 17:22:00,Brasil,MATO GROSSO,CAMPINÁPOLIS,Cerrado,2016,6,1
1231,202346910,849acc77-5aba-11e8-911c-28924ad12c5c,-10.894,-49.735,2016-06-01 17:22:00,Brasil,TOCANTINS,LAGOA DA CONFUSÃO,Cerrado,2016,6,1
1237,202420020,4c911a99-5abb-11e8-911c-28924ad12c5c,-7.898,-44.059,2016-06-02 16:28:00,Brasil,PIAUÍ,SEBASTIÃO LEAL,Cerrado,2016,6,2
1241,202420030,4c911a9d-5abb-11e8-911c-28924ad12c5c,-5.881,-43.618,2016-06-02 16:28:00,Brasil,MARANHÃO,LAGOA DO MATO,Cerrado,2016,6,2
1242,205889000,5978dd61-5abb-11e8-911c-28924ad12c5c,-18.692,-46.577,2016-07-14 17:01:00,Brasil,MINAS GERAIS,PATOS DE MINAS,Cerrado,2016,7,14
1243,205889001,5978dd62-5abb-11e8-911c-28924ad12c5c,-21.39,-54.682,2016-07-14 17:01:00,Brasil,MATO GROSSO DO SUL,NOVA ALVORADA DO SUL,Cerrado,2016,7,14
1245,205888719,5978dd3f-5abb-11e8-911c-28924ad12c5c,-24.21,-51.24,2016-07-14 17:00:00,Brasil,PARANÁ,ORTIGUEIRA,Mata Atlântica,2016,7,14
1246,205888376,5978dd21-5abb-11e8-911c-28924ad12c5c,-22.788,-49.171,2016-07-14 17:00:00,Brasil,SÃO PAULO,IARAS,Cerrado,2016,7,14
1248,205889525,849e2750-5aba-11e8-911c-28924ad12c5c,-10.697,-47.975,2016-07-14 17:04:00,Brasil,TOCANTINS,MONTE DO CARMO,Cerrado,2016,7,14
1249,205889526,849e2751-5aba-11e8-911c-28924ad12c5c,-7.447,-45.01,2016-07-14 17:04:00,Brasil,MARANHÃO,SÃO FÉLIX DE BALSAS,Cerrado,2016,7,14
1251,205889493,849d913b-5aba-11e8-911c-28924ad12c5c,-10.226,-52.637,2016-07-14 17:04:00,Brasil,MATO GROSSO,SANTA CRUZ DO XINGU,Amazônia,2016,7,14
1254,205889497,849d913f-5aba-11e8-911c-28924ad12c5c,-8.705,-49.572,2016-07-14 17:04:00,Brasil,PARÁ,CONCEIÇÃO DO ARAGUAIA,Amazônia,2016,7,14
1259,202345263,596e9f51-5abb-11e8-911c-28924ad12c5c,-13.496,-40.134,2016-06-01 15:43:00,Brasil,BAHIA,ITIRUÇU,Mata Atlântica,2016,6,1
1302,205889187,4cfbd78a-5abb-11e8-911c-28924ad12c5c,-15.864,-47.226,2016-07-14 17:02:00,Brasil,GOIÁS,FORMOSA,Cerrado,2016,7,14
1306,205889312,4cfbd7ac-5abb-11e8-911c-28924ad12c5c,-12.687,-45.023,2016-07-14 17:03:00,Brasil,BAHIA,SÃO DESIDÉRIO,Cerrado,2016,7,14
1317,202697285,849ace04-5aba-11e8-911c-28924ad12c5c,-15.064,-56.947,2016-06-06 17:40:00,Brasil,MATO GROSSO,BARRA DO BUGRES,Cerrado,2016,6,6
1319,202697508,86cc1390-5aba-11e8-911c-28924ad12c5c,-3.214,-61.227,2016-06-06 17:43:00,Brasil,AMAZONAS,MANACAPURU,Amazônia,2016,6,6
1321,202695282,4c9bd157-5abb-11e8-911c-28924ad12c5c,-13.647,-39.869,2016-06-06 16:02:00,Brasil,BAHIA,JAGUAQUARA,Mata Atlântica,2016,6,6
1328,205889684,849e2794-5aba-11e8-911c-28924ad12c5c,-3.779,-60.238,2016-07-14 17:06:00,Brasil,AMAZONAS,CAREIRO,Amazônia,2016,7,14
1370,205985622,59796ff9-5abb-11e8-911c-28924ad12c5c,-4.833,-37.911,2016-07-15 16:10:00,Brasil,CEARÁ,RUSSAS,Caatinga,2016,7,15
1373,205993309,5979700f-5abb-11e8-911c-28924ad12c5c,-18.085,-56.265,2016-07-15 17:45:00,Brasil,MATO GROSSO DO SUL,CORUMBÁ,Pantanal,2016,7,15
1377,205898785,86edae7c-5aba-11e8-911c-28924ad12c5c,-7.636,-71.97,2016-07-14 18:43:00,Brasil,ACRE,CRUZEIRO DO SUL,Amazônia,2016,7,14
1438,205985534,4cff035c-5abb-11e8-911c-28924ad12c5c,-7.515,-44.347,2016-07-15 16:09:00,Brasil,PIAUÍ,URUÇUÍ,Cerrado,2016,7,15
1442,205985475,4cff0350-5abb-11e8-911c-28924ad12c5c,-7.219,-38.585,2016-07-15 16:09:00,Brasil,PARAÍBA,MONTE HOREBE,Caatinga,2016,7,15
1446,208492382,84a3a3fc-5aba-11e8-911c-28924ad12c5c,-7.776,-61.678,2016-08-03 18:18:00,Brasil,AMAZONAS,MANICORÉ,Amazônia,2016,8,3
1447,208492383,84a3a3fd-5aba-11e8-911c-28924ad12c5c,-9.084,-68.657,2016-08-03 18:18:00,Brasil,ACRE,SENA MADUREIRA,Amazônia,2016,8,3
1451,208492398,84a3a40a-5aba-11e8-911c-28924ad12c5c,-9.9,-64.216,2016-08-03 18:18:00,Brasil,RONDÔNIA,BURITIS,Amazônia,2016,8,3
1456,208492348,84a3a3de-5aba-11e8-911c-28924ad12c5c,-9.462,-59.255,2016-08-03 18:18:00,Brasil,MATO GROSSO,COLNIZA,Amazônia,2016,8,3
1515,207234383,597ca4b4-5abb-11e8-911c-28924ad12c5c,-28.98,-49.997,2016-07-25 16:40:00,Brasil,RIO GRANDE DO SUL,CAMBARÁ DO SUL,Mata Atlântica,2016,7,25
1530,206570380,4d0a74ef-5abb-11e8-911c-28924ad12c5c,-18.272,-53.031,2016-07-20 18:03:00,Brasil,GOIÁS,MINEIROS,Cerrado,2016,7,20
1539,208472145,84a3136b-5aba-11e8-911c-28924ad12c5c,-5.604,-45.739,2016-08-03 16:40:00,Brasil,MARANHÃO,GRAJAÚ,Cerrado,2016,8,3
1541,208472147,84a3136d-5aba-11e8-911c-28924ad12c5c,-9.208,-54.885,2016-08-03 16:40:00,Brasil,PARÁ,NOVO PROGRESSO,Amazônia,2016,8,3
1549,208472055,84a3133b-5aba-11e8-911c-28924ad12c5c,-8.458,-47.716,2016-08-03 16:40:00,Brasil,TOCANTINS,ITACAJÁ,Cerrado,2016,8,3
1573,206696312,597b8571-5abb-11e8-911c-28924ad12c5c,-28.24,-50.231,2016-07-21 17:05:00,Brasil,SANTA CATARINA,LAGES,Mata Atlântica,2016,7,21
1668,208471471,4d370e40-5abb-11e8-911c-28924ad12c5c,-22.203,-47.153,2016-08-03 16:36:00,Brasil,SÃO PAULO,MOGI GUAÇU,Cerrado,2016,8,3
1669,208471472,4d370e41-5abb-11e8-911c-28924ad12c5c,-22.235,-42.871,2016-08-03 16:36:00,Brasil,RIO DE JANEIRO,TERESÓPOLIS,Mata Atlântica,2016,8,3
1675,208471478,4d370e47-5abb-11e8-911c-28924ad12c5c,-20.732,-43.624,2016-08-03 16:36:00,Brasil,MINAS GERAIS,ITAVERAVA,Mata Atlântica,2016,8,3
1679,207116752,4d1ad21b-5abb-11e8-911c-28924ad12c5c,-4.942,-42.586,2016-07-24 16:04:00,Brasil,PIAUÍ,ALTOS,Cerrado,2016,7,24
1681,206826098,4d11ba61-5abb-11e8-911c-28924ad12c5c,-4.953,-42.59,2016-07-22 16:16:00,Brasil,PIAUÍ,ALTOS,Cerrado,2016,7,22
1690,208471462,4d370e38-5abb-11e8-911c-28924ad12c5c,-23.787,-51.632,2016-08-03 16:36:00,Brasil,PARANÁ,KALORÉ,Mata Atlântica,2016,8,3
1694,208471901,4d370eba-5abb-11e8-911c-28924ad12c5c,-7.989,-44.78,2016-08-03 16:40:00,Brasil,PIAUÍ,URUÇUÍ,Cerrado,2016,8,3
1704,207492139,597d27ea-5abb-11e8-911c-28924ad12c5c,-5.641,-43.497,2016-07-27 16:34:00,Brasil,MARANHÃO,PARNARAMA,Cerrado,2016,7,27
1705,207491548,597d27e9-5abb-11e8-911c-28924ad12c5c,-22.839,-43.382,2016-07-27 16:30:00,Brasil,RIO DE JANEIRO,RIO DE JANEIRO,Mata Atlântica,2016,7,27
1709,208471741,4d370ea1-5abb-11e8-911c-28924ad12c5c,-10.088,-42.448,2016-08-03 16:39:00,Brasil,BAHIA,PILÃO ARCADO,Caatinga,2016,8,3
1718,208033008,84a1fabb-5aba-11e8-911c-28924ad12c5c,-7.24,-59.981,2016-07-31 17:48:00,Brasil,AMAZONAS,APUÍ,Amazônia,2016,7,31
1720,208033010,84a1fabd-5aba-11e8-911c-28924ad12c5c,-6.746,-55.635,2016-07-31 17:48:00,Brasil,PARÁ,NOVO PROGRESSO,Amazônia,2016,7,31
1721,208033011,84a1fabe-5aba-11e8-911c-28924ad12c5c,-8.484,-70.734,2016-07-31 17:48:00,Brasil,ACRE,TARAUACÁ,Amazônia,2016,7,31
1743,207491582,4d221352-5abb-11e8-911c-28924ad12c5c,-19.44,-47.805,2016-07-27 16:31:00,Brasil,MINAS GERAIS,UBERABA,Cerrado,2016,7,27
1760,207626525,4d26ed74-5abb-11e8-911c-28924ad12c5c,-28.225,-50.512,2016-07-28 17:11:00,Brasil,SANTA CATARINA,LAGES,Mata Atlântica,2016,7,28
1802,208171533,4d323a94-5abb-11e8-911c-28924ad12c5c,-13.803,-49.75,2016-08-01 16:51:00,Brasil,GOIÁS,AMARALINA,Cerrado,2016,8,1
1817,207880230,4d2ec834-5abb-11e8-911c-28924ad12c5c,-6.999,-43.644,2016-07-30 17:04:00,Brasil,PIAUÍ,JERUMENHA,Cerrado,2016,7,30
1846,208471488,4d370e50-5abb-11e8-911c-28924ad12c5c,-17.678,-47.543,2016-08-03 16:37:00,Brasil,GOIÁS,CATALÃO,Cerrado,2016,8,3
1848,208005430,4d308ada-5abb-11e8-911c-28924ad12c5c,-3.048,-42.378,2016-07-31 16:10:00,Brasil,MARANHÃO,TUTÓIA,Cerrado,2016,7,31
1867,208844983,4d4171bc-5abb-11e8-911c-28924ad12c5c,-19.297,-57.271,2016-08-05 18:03:00,Brasil,MATO GROSSO DO SUL,CORUMBÁ,Pantanal,2016,8,5
1872,209159233,84a8775e-5aba-11e8-911c-28924ad12c5c,-7.777,-61.69,2016-08-07 17:54:00,Brasil,AMAZONAS,MANICORÉ,Amazônia,2016,8,7
1873,208811734,5980f604-5abb-11e8-911c-28924ad12c5c,-22.827,-42.725,2016-08-05 16:23:00,Brasil,RIO DE JANEIRO,TANGUÁ,Mata Atlântica,2016,8,5
1874,208811735,5980f605-5abb-11e8-911c-28924ad12c5c,-23.123,-49.972,2016-08-05 16:23:00,Brasil,PARANÁ,JACAREZINHO,Mata Atlântica,2016,8,5
1875,208811736,5980f606-5abb-11e8-911c-28924ad12c5c,-23.044,-49.415,2016-08-05 16:23:00,Brasil,SÃO PAULO,ÓLEO,Mata Atlântica,2016,8,5
1903,209487696,84a99bb6-5aba-11e8-911c-28924ad12c5c,-5.87,-45.112,2016-08-10 16:46:00,Brasil,MARANHÃO,FERNANDO FALCÃO,Cerrado,2016,8,10
1904,209364215,4d5616eb-5abb-11e8-911c-28924ad12c5c,-20.707,-47.939,2016-08-09 17:38:00,Brasil,SÃO PAULO,ORLÂNDIA,Cerrado,2016,8,9
1905,209487741,84a99bcf-5aba-11e8-911c-28924ad12c5c,-7.037,-55.752,2016-08-10 16:46:00,Brasil,PARÁ,NOVO PROGRESSO,Amazônia,2016,8,10
1908,209357338,598220fb-5abb-11e8-911c-28924ad12c5c,-7.057,-43.377,2016-08-09 16:03:00,Brasil,PIAUÍ,JERUMENHA,Caatinga,2016,8,9
1909,209257150,4d514cb7-5abb-11e8-911c-28924ad12c5c,-18.243,-44.011,2016-08-08 16:55:00,Brasil,MINAS GERAIS,DIAMANTINA,Cerrado,2016,8,8
1910,209257928,84a900ba-5aba-11e8-911c-28924ad12c5c,-10.594,-50.502,2016-08-08 16:58:00,Brasil,TOCANTINS,PIUM,Cerrado,2016,8,8
1911,209257829,84a90067-5aba-11e8-911c-28924ad12c5c,-7.937,-46.296,2016-08-08 16:58:00,Brasil,MARANHÃO,BALSAS,Cerrado,2016,8,8
1916,208843085,5980f6da-5abb-11e8-911c-28924ad12c5c,-29.085,-50.533,2016-08-05 18:00:00,Brasil,RIO GRANDE DO SUL,SÃO FRANCISCO DE PAULA,Mata Atlântica,2016,8,5
1945,208812729,4d40d802-5abb-11e8-911c-28924ad12c5c,-3.025,-41.658,2016-08-05 16:29:00,Brasil,PIAUÍ,BOM PRINCÍPIO DO PIAUÍ,Caatinga,2016,8,5
1946,208812731,4d40d803-5abb-11e8-911c-28924ad12c5c,-3.204,-42.522,2016-08-05 16:29:00,Brasil,MARANHÃO,SANTANA DO MARANHÃO,Cerrado,2016,8,5
1947,208812692,4d40d804-5abb-11e8-911c-28924ad12c5c,-1.645,-47.381,2016-08-05 16:29:00,Brasil,PARÁ,IRITUIA,Amazônia,2016,8,5
1953,209869266,84aac3ca-5aba-11e8-911c-28924ad12c5c,-5.835,-57.653,2016-08-13 17:17:00,Brasil,PARÁ,JACAREACANGA,Amazônia,2016,8,13
1954,209868443,84aac1fa-5aba-11e8-911c-28924ad12c5c,-14.388,-52.049,2016-08-13 17:15:00,Brasil,MATO GROSSO,NOVA NAZARÉ,Cerrado,2016,8,13
1959,209039470,84a874d0-5aba-11e8-911c-28924ad12c5c,-5.273,-49.017,2016-08-06 17:11:00,Brasil,PARÁ,MARABÁ,Amazônia,2016,8,6
1960,209602538,5982a17b-5abb-11e8-911c-28924ad12c5c,-5.734,-35.779,2016-08-11 15:51:00,Brasil,RIO GRANDE DO NORTE,RIACHUELO,Caatinga,2016,8,11
1961,209623899,84aa2565-5aba-11e8-911c-28924ad12c5c,-10.686,-62.652,2016-08-11 17:29:00,Brasil,RONDÔNIA,JARU,Amazônia,2016,8,11
1962,208812321,4d40d771-5abb-11e8-911c-28924ad12c5c,-5.086,-40.838,2016-08-05 16:28:00,Brasil,CEARÁ,CRATEÚS,Caatinga,2016,8,5
1981,208812192,4d40d74e-5abb-11e8-911c-28924ad12c5c,-7.182,-37.203,2016-08-05 16:27:00,Brasil,PARAÍBA,CACIMBA DE AREIA,Caatinga,2016,8,5
1988,208812087,4d40d736-5abb-11e8-911c-28924ad12c5c,-10.823,-45.436,2016-08-05 16:27:00,Brasil,BAHIA,FORMOSA DO RIO PRETO,Cerrado,2016,8,5
1989,208811879,4d40d703-5abb-11e8-911c-28924ad12c5c,-20.176,-46.79,2016-08-05 16:24:00,Brasil,MINAS GERAIS,SÃO ROQUE DE MINAS,Cerrado,2016,8,5
1991,209735112,4d5c8f2b-5abb-11e8-911c-28924ad12c5c,-4.046,-38.731,2016-08-12 16:34:00,Brasil,CEARÁ,MARANGUAPE,Caatinga,2016,8,12
1992,209734631,5982a23d-5abb-11e8-911c-28924ad12c5c,-21.894,-48.938,2016-08-12 16:30:00,Brasil,SÃO PAULO,IACANGA,Mata Atlântica,2016,8,12
1993,209950035,86ce5c5a-5aba-11e8-911c-28924ad12c5c,-11.778,-47.56,2016-08-14 16:20:00,Brasil,TOCANTINS,NATIVIDADE,Cerrado,2016,8,14
1994,209949544,4d64ffb6-5abb-11e8-911c-28924ad12c5c,-21.132,-47.031,2016-08-14 16:18:00,Brasil,MINAS GERAIS,ITAMOGI,Cerrado,2016,8,14
1995,209950146,4d64ffdd-5abb-11e8-911c-28924ad12c5c,-9.397,-45.419,2016-08-14 16:21:00,Brasil,PIAUÍ,GILBUÉS,Cerrado,2016,8,14
1996,208812213,84a5097b-5aba-11e8-911c-28924ad12c5c,-10.214,-46.734,2016-08-05 16:27:00,Brasil,TOCANTINS,MATEIROS,Cerrado,2016,8,5
1997,208811923,5980f612-5abb-11e8-911c-28924ad12c5c,-19.015,-50.693,2016-08-05 16:25:00,Brasil,GOIÁS,CAÇU,Mata Atlântica,2016,8,5
2004,208639543,4d3e7c67-5abb-11e8-911c-28924ad12c5c,-28.774,-51.212,2016-08-04 17:17:00,Brasil,RIO GRANDE DO SUL,IPÊ,Mata Atlântica,2016,8,4
2005,210065452,4d68e392-5abb-11e8-911c-28924ad12c5c,-20.327,-45.759,2016-08-15 17:01:00,Brasil,MINAS GERAIS,PAINS,Cerrado,2016,8,15
2006,210066128,84ab527c-5aba-11e8-911c-28924ad12c5c,-6.76,-51.386,2016-08-15 17:05:00,Brasil,PARÁ,TUCUMÃ,Amazônia,2016,8,15
2007,210065950,84ab51eb-5aba-11e8-911c-28924ad12c5c,-10.733,-48.334,2016-08-15 17:04:00,Brasil,TOCANTINS,PORTO NACIONAL,Cerrado,2016,8,15
2008,210465410,4d700944-5abb-11e8-911c-28924ad12c5c,-19.146,-57.441,2016-08-18 17:32:00,Brasil,MATO GROSSO DO SUL,CORUMBÁ,Pantanal,2016,8,18
2009,212563192,4d9ba6b1-5abb-11e8-911c-28924ad12c5c,-9.956,-45.452,2016-09-04 16:39:00,Brasil,PIAUÍ,BARREIRAS DO PIAUÍ,Cerrado,2016,9,4
2010,212563198,4d9ba6b2-5abb-11e8-911c-28924ad12c5c,-11.052,-43.595,2016-09-04 16:39:00,Brasil,BAHIA,BARRA,Cerrado,2016,9,4
2012,210319931,4d6cb76f-5abb-11e8-911c-28924ad12c5c,-20.675,-47.853,2016-08-17 16:49:00,Brasil,SÃO PAULO,ORLÂNDIA,Cerrado,2016,8,17
2013,210321633,5984b5eb-5abb-11e8-911c-28924ad12c5c,-7.933,-42.071,2016-08-17 16:52:00,Brasil,PIAUÍ,SIMPLÍCIO MENDES,Caatinga,2016,8,17
2014,212562727,598b33bd-5abb-11e8-911c-28924ad12c5c,-22.533,-43.557,2016-09-04 16:36:00,Brasil,RIO DE JANEIRO,MIGUEL PEREIRA,Mata Atlântica,2016,9,4
2017,212563470,598b33c0-5abb-11e8-911c-28924ad12c5c,-6.234,-43.382,2016-09-04 16:40:00,Brasil,MARANHÃO,LAGOA DO MATO,Cerrado,2016,9,4
2020,212562821,4d9ba676-5abb-11e8-911c-28924ad12c5c,-15.207,-50.161,2016-09-04 16:38:00,Brasil,GOIÁS,ARAGUAPAZ,Cerrado,2016,9,4
2021,212562724,598b33ba-5abb-11e8-911c-28924ad12c5c,-20.308,-41.633,2016-09-04 16:36:00,Brasil,ESPÍRITO SANTO,IRUPI,Mata Atlântica,2016,9,4
2022,212562725,598b33bb-5abb-11e8-911c-28924ad12c5c,-19.879,-43.796,2016-09-04 16:36:00,Brasil,MINAS GERAIS,SABARÁ,Mata Atlântica,2016,9,4
2024,212563659,84b3e627-5aba-11e8-911c-28924ad12c5c,-8.744,-49.963,2016-09-04 16:40:00,Brasil,PARÁ,SANTA MARIA DAS BARREIRAS,Amazônia,2016,9,4
2071,212563527,86d09941-5aba-11e8-911c-28924ad12c5c,-5.976,-47.603,2016-09-04 16:40:00,Brasil,TOCANTINS,MAURILÂNDIA DO TOCANTINS,Cerrado,2016,9,4
2084,212562864,84b3543b-5aba-11e8-911c-28924ad12c5c,-11.067,-50.667,2016-09-04 16:39:00,Brasil,MATO GROSSO,LUCIARA,Cerrado,2016,9,4
2098,210787108,4d780ac9-5abb-11e8-911c-28924ad12c5c,-19.722,-57.741,2016-08-21 18:03:00,Brasil,MATO GROSSO DO SUL,CORUMBÁ,Pantanal,2016,8,21
2112,212567815,84b3e6e7-5aba-11e8-911c-28924ad12c5c,-9.798,-63.783,2016-09-04 18:18:00,Brasil,RONDÔNIA,PORTO VELHO,Amazônia,2016,9,4
2118,210915047,4d7b6b48-5abb-11e8-911c-28924ad12c5c,-19.876,-45.688,2016-08-22 17:07:00,Brasil,MINAS GERAIS,LUZ,Cerrado,2016,8,22
2119,210914971,4d7b6b17-5abb-11e8-911c-28924ad12c5c,-24.37,-52.121,2016-08-22 17:06:00,Brasil,PARANÁ,IRETAMA,Mata Atlântica,2016,8,22
2120,210917179,84adac4b-5aba-11e8-911c-28924ad12c5c,-5.761,-47.786,2016-08-22 17:11:00,Brasil,TOCANTINS,ARAGUATINS,Cerrado,2016,8,22
2121,210915596,84adaaed-5aba-11e8-911c-28924ad12c5c,-14.321,-52.905,2016-08-22 17:09:00,Brasil,MATO GROSSO,CAMPINÁPOLIS,Cerrado,2016,8,22
2122,212200890,86d013c0-5aba-11e8-911c-28924ad12c5c,-6.139,-53.744,2016-08-31 17:05:00,Brasil,PARÁ,ALTAMIRA,Amazônia,2016,8,31
2126,212200388,84b23241-5aba-11e8-911c-28924ad12c5c,-7.042,-45.756,2016-08-31 17:04:00,Brasil,MARANHÃO,SÃO RAIMUNDO DAS MANGABEIRAS,Cerrado,2016,8,31
2128,212200390,84b23243-5aba-11e8-911c-28924ad12c5c,-9.883,-50.501,2016-08-31 17:04:00,Brasil,MATO GROSSO,SANTA TEREZINHA,Amazônia,2016,8,31
2131,212200321,84b23205-5aba-11e8-911c-28924ad12c5c,-10.701,-48.165,2016-08-31 17:03:00,Brasil,TOCANTINS,MONTE DO CARMO,Cerrado,2016,8,31
2139,212474753,4d9b29b5-5abb-11e8-911c-28924ad12c5c,-15.745,-41.612,2016-09-03 15:54:00,Brasil,MINAS GERAIS,ÁGUAS VERMELHAS,Mata Atlântica,2016,9,3
2140,212485129,84b3537e-5aba-11e8-911c-28924ad12c5c,-11.407,-50.082,2016-09-03 17:34:00,Brasil,TOCANTINS,LAGOA DA CONFUSÃO,Cerrado,2016,9,3
2141,212485130,84b3537f-5aba-11e8-911c-28924ad12c5c,-12.905,-51.427,2016-09-03 17:34:00,Brasil,MATO GROSSO,RIBEIRÃO CASCALHEIRA,Cerrado,2016,9,3
2147,212485012,4d9b29fb-5abb-11e8-911c-28924ad12c5c,-14.591,-47.858,2016-09-03 17:33:00,Brasil,GOIÁS,NIQUELÂNDIA,Cerrado,2016,9,3
2148,212299403,4d979524-5abb-11e8-911c-28924ad12c5c,-17.704,-55.431,2016-09-01 17:45:00,Brasil,MATO GROSSO DO SUL,CORUMBÁ,Pantanal,2016,9,1
2150,212299421,4d979528-5abb-11e8-911c-28924ad12c5c,-17.455,-50.011,2016-09-01 17:45:00,Brasil,GOIÁS,EDÉIA,Cerrado,2016,9,1
2168,212563324,4d9ba6c3-5abb-11e8-911c-28924ad12c5c,-6.939,-38.011,2016-09-04 16:40:00,Brasil,PARAÍBA,SÃO JOSÉ DA LAGOA TAPADA,Caatinga,2016,9,4
2180,212299807,84b2bdcb-5aba-11e8-911c-28924ad12c5c,-8.791,-68.864,2016-09-01 17:48:00,Brasil,AMAZONAS,BOCA DO ACRE,Amazônia,2016,9,1
2181,212299808,84b2bdcc-5aba-11e8-911c-28924ad12c5c,-5.172,-55.976,2016-09-01 17:48:00,Brasil,PARÁ,TRAIRÃO,Amazônia,2016,9,1
2183,212287297,84b234a1-5aba-11e8-911c-28924ad12c5c,-9.976,-46.116,2016-09-01 16:08:00,Brasil,MARANHÃO,ALTO PARNAÍBA,Cerrado,2016,9,1
2184,212287303,84b234a2-5aba-11e8-911c-28924ad12c5c,-11.432,-47.339,2016-09-01 16:08:00,Brasil,TOCANTINS,ALMAS,Cerrado,2016,9,1
2189,208848201,84a50be7-5aba-11e8-911c-28924ad12c5c,-9.119,-62.481,2016-08-05 18:06:00,Brasil,RONDÔNIA,CUJUBIM,Amazônia,2016,8,5
2190,212299787,84b2bdb7-5aba-11e8-911c-28924ad12c5c,-9.646,-64.22,2016-09-01 17:47:00,Brasil,RONDÔNIA,PORTO VELHO,Amazônia,2016,9,1
2191,212299788,84b2bdb8-5aba-11e8-911c-28924ad12c5c,-9.315,-68.373,2016-09-01 17:47:00,Brasil,ACRE,BUJARI,Amazônia,2016,9,1
2193,212299790,84b2bdba-5aba-11e8-911c-28924ad12c5c,-10.901,-58.054,2016-09-01 17:47:00,Brasil,MATO GROSSO,JUARA,Amazônia,2016,9,1
2209,212379548,84b35288-5aba-11e8-911c-28924ad12c5c,-6.102,-44.621,2016-09-02 16:52:00,Brasil,MARANHÃO,MIRADOR,Cerrado,2016,9,2
2210,212393893,84b352ff-5aba-11e8-911c-28924ad12c5c,-9.441,-67.722,2016-09-02 18:30:00,Brasil,AMAZONAS,BOCA DO ACRE,Amazônia,2016,9,2
2211,212393905,84b35300-5aba-11e8-911c-28924ad12c5c,-9.952,-68.208,2016-09-02 18:30:00,Brasil,ACRE,RIO BRANCO,Amazônia,2016,9,2
2220,212378725,84b2bee7-5aba-11e8-911c-28924ad12c5c,-10.789,-46.505,2016-09-02 16:51:00,Brasil,TOCANTINS,MATEIROS,Cerrado,2016,9,2
2221,211970560,4d90f7a2-5abb-11e8-911c-28924ad12c5c,-18.017,-48.57,2016-08-29 17:14:00,Brasil,GOIÁS,CALDAS NOVAS,Cerrado,2016,8,29
2222,211970381,4d90f75f-5abb-11e8-911c-28924ad12c5c,-19.246,-48.387,2016-08-29 17:13:00,Brasil,MINAS GERAIS,UBERLÂNDIA,Cerrado,2016,8,29
2223,211971589,84b19aa3-5aba-11e8-911c-28924ad12c5c,-11.154,-51.238,2016-08-29 17:16:00,Brasil,MATO GROSSO,LUCIARA,Cerrado,2016,8,29
2224,211971871,84b19b99-5aba-11e8-911c-28924ad12c5c,-7.237,-49.602,2016-08-29 17:17:00,Brasil,PARÁ,RIO MARIA,Amazônia,2016,8,29
2225,212378817,84b2bf21-5aba-11e8-911c-28924ad12c5c,-12.701,-50.648,2016-09-02 16:51:00,Brasil,MATO GROSSO,COCALINHO,Cerrado,2016,9,2
2226,211844844,86d012b5-5aba-11e8-911c-28924ad12c5c,-1.757,-47.916,2016-08-28 16:35:00,Brasil,PARÁ,CONCÓRDIA DO PARÁ,Amazônia,2016,8,28
2233,211855567,86d012bc-5aba-11e8-911c-28924ad12c5c,-14.041,-58.584,2016-08-28 18:10:00,Brasil,MATO GROSSO,TANGARÁ DA SERRA,Cerrado,2016,8,28
2235,211856436,86d012be-5aba-11e8-911c-28924ad12c5c,-13.312,-61.863,2016-08-28 18:11:00,Brasil,RONDÔNIA,PIMENTEIRAS DO OESTE,Amazônia,2016,8,28
2236,211857348,84b1119a-5aba-11e8-911c-28924ad12c5c,-9.637,-67.44,2016-08-28 18:12:00,Brasil,ACRE,PORTO ACRE,Amazônia,2016,8,28
2237,211844754,84b10f0f-5aba-11e8-911c-28924ad12c5c,-6.574,-44.945,2016-08-28 16:34:00,Brasil,MARANHÃO,MIRADOR,Cerrado,2016,8,28
2238,211857216,84b11131-5aba-11e8-911c-28924ad12c5c,-7.522,-70.032,2016-08-28 18:12:00,Brasil,AMAZONAS,ENVIRA,Amazônia,2016,8,28
2255,212666283,84b3e8fd-5aba-11e8-911c-28924ad12c5c,-7.903,-61.518,2016-09-05 17:23:00,Brasil,AMAZONAS,MANICORÉ,Amazônia,2016,9,5
2256,212666329,84b3e92b-5aba-11e8-911c-28924ad12c5c,-9.381,-62.683,2016-09-05 17:23:00,Brasil,RONDÔNIA,CUJUBIM,Amazônia,2016,9,5
2257,212666156,84b3e880-5aba-11e8-911c-28924ad12c5c,-10.06,-47.403,2016-09-05 17:22:00,Brasil,TOCANTINS,NOVO ACORDO,Cerrado,2016,9,5
2258,212666157,84b3e881-5aba-11e8-911c-28924ad12c5c,-10.021,-58.555,2016-09-05 17:22:00,Brasil,MATO GROSSO,COTRIGUAÇU,Amazônia,2016,9,5
2260,211724943,4d8d1ffc-5abb-11e8-911c-28924ad12c5c,-17.873,-49.329,2016-08-27 17:26:00,Brasil,GOIÁS,MORRINHOS,Cerrado,2016,8,27
2262,211692014,59890f19-5abb-11e8-911c-28924ad12c5c,-7.497,-34.913,2016-08-27 15:50:00,Brasil,PARAÍBA,CAAPORÃ,Mata Atlântica,2016,8,27
2263,211575306,86d0125e-5aba-11e8-911c-28924ad12c5c,-8.074,-72.423,2016-08-26 18:25:00,Brasil,ACRE,CRUZEIRO DO SUL,Amazônia,2016,8,26
2264,211575307,86d0125f-5aba-11e8-911c-28924ad12c5c,-7.396,-72.836,2016-08-26 18:25:00,Brasil,AMAZONAS,GUAJARÁ,Amazônia,2016,8,26
2271,211532184,84afeb1f-5aba-11e8-911c-28924ad12c5c,-6.718,-55.468,2016-08-26 16:46:00,Brasil,PARÁ,NOVO PROGRESSO,Amazônia,2016,8,26
2272,211532185,84afeb20-5aba-11e8-911c-28924ad12c5c,-7.836,-45.733,2016-08-26 16:46:00,Brasil,MARANHÃO,TASSO FRAGOSO,Cerrado,2016,8,26
2274,211532188,84afeb22-5aba-11e8-911c-28924ad12c5c,-6.885,-48.031,2016-08-26 16:46:00,Brasil,TOCANTINS,WANDERLÂNDIA,Amazônia,2016,8,26
2288,211531094,4d8800da-5abb-11e8-911c-28924ad12c5c,-21.949,-46.904,2016-08-26 16:42:00,Brasil,SÃO PAULO,SÃO JOÃO DA BOA VISTA,Cerrado,2016,8,26
2289,211531795,4d8801e6-5abb-11e8-911c-28924ad12c5c,-14.035,-44.884,2016-08-26 16:44:00,Brasil,BAHIA,COCOS,Cerrado,2016,8,26
2292,194201771,8493a494-5aba-11e8-911c-28924ad12c5c,-13.594,-51.999,2016-02-03 17:16:00,Brasil,MATO GROSSO,CANARANA,Cerrado,2016,2,3
2297,194201793,8493a49a-5aba-11e8-911c-28924ad12c5c,-8.578,-49.952,2016-02-03 17:17:00,Brasil,PARÁ,SANTA MARIA DAS BARREIRAS,Amazônia,2016,2,3
2299,194201800,8493a49c-5aba-11e8-911c-28924ad12c5c,-7.163,-44.601,2016-02-03 17:17:00,Brasil,MARANHÃO,BENEDITO LEITE,Cerrado,2016,2,3
2308,194201832,86caec9b-5aba-11e8-911c-28924ad12c5c,-0.503,-63.011,2016-02-03 17:19:00,Brasil,AMAZONAS,BARCELOS,Amazônia,2016,2,3
2311,194201835,86caec9e-5aba-11e8-911c-28924ad12c5c,2.391,-61.667,2016-02-03 17:20:00,Brasil,RORAIMA,IRACEMA,Amazônia,2016,2,3
2316,194201582,4bd22c94-5abb-11e8-911c-28924ad12c5c,-21.26,-50.753,2016-02-03 17:13:00,Brasil,SÃO PAULO,GUARARAPES,Mata Atlântica,2016,2,3
2317,194201583,4bd22c95-5abb-11e8-911c-28924ad12c5c,-22.653,-52.024,2016-02-03 17:13:00,Brasil,PARANÁ,PARANAPOEMA,Mata Atlântica,2016,2,3
2318,194201584,4bd22c96-5abb-11e8-911c-28924ad12c5c,-21.5,-52.178,2016-02-03 17:13:00,Brasil,MATO GROSSO DO SUL,BRASILÂNDIA,Cerrado,2016,2,3
2320,194201590,4bd22c98-5abb-11e8-911c-28924ad12c5c,-19.019,-51.099,2016-02-03 17:14:00,Brasil,GOIÁS,ITARUMÃ,Cerrado,2016,2,3
2322,194201592,4bd22c9a-5abb-11e8-911c-28924ad12c5c,-18.459,-49.015,2016-02-03 17:14:00,Brasil,MINAS GERAIS,TUPACIGUARA,Mata Atlântica,2016,2,3
2342,194201791,8493a499-5aba-11e8-911c-28924ad12c5c,-11.638,-50.092,2016-02-03 17:16:00,Brasil,TOCANTINS,FORMOSO DO ARAGUAIA,Cerrado,2016,2,3
2364,194004219,86edaf54-5aba-11e8-911c-28924ad12c5c,0.773,-59.36,2016-02-01 17:32:00,Brasil,RORAIMA,CAROEBE,Amazônia,2016,2,1
2366,194004221,86edaf56-5aba-11e8-911c-28924ad12c5c,-0.305,-63.445,2016-02-01 17:32:00,Brasil,AMAZONAS,BARCELOS,Amazônia,2016,2,1
2405,194003953,86caec88-5aba-11e8-911c-28924ad12c5c,-17.11,-54.984,2016-02-01 17:27:00,Brasil,MATO GROSSO,SANTO ANTÔNIO DO LEVERGER,Pantanal,2016,2,1
2518,193810127,86caec1e-5aba-11e8-911c-28924ad12c5c,-15.373,-59.524,2016-01-30 17:40:00,Brasil,MATO GROSSO,VILA BELA DA SANTÍSSIMA TRINDADE,Amazônia,2016,1,30
2648,191135195,4b72253e-5abb-11e8-911c-28924ad12c5c,-15.904,-38.89,2016-01-01 16:32:00,Brasil,BAHIA,BELMONTE,Mata Atlântica,2016,1,1
2649,191137736,5a0da92c-5abb-11e8-911c-28924ad12c5c,-19.546,-57.627,2016-01-01 18:09:00,Brasil,MATO GROSSO DO SUL,CORUMBÁ,Pantanal,2016,1,1
2650,191135227,67e259a1-5abb-11e8-911c-28924ad12c5c,-12.108,-51.883,2016-01-01 16:33:00,Brasil,MATO GROSSO,BOM JESUS DO ARAGUAIA,Amazônia,2016,1,1
2653,191135163,4b72251e-5abb-11e8-911c-28924ad12c5c,-19.914,-40.645,2016-01-01 16:31:00,Brasil,ESPÍRITO SANTO,SANTA TERESA,Mata Atlântica,2016,1,1
2664,191135174,4b722529-5abb-11e8-911c-28924ad12c5c,-20.522,-48.44,2016-01-01 16:31:00,Brasil,SÃO PAULO,BARRETOS,Cerrado,2016,1,1
2695,191135225,67e25980-5abb-11e8-911c-28924ad12c5c,-10.455,-37.085,2016-01-01 16:33:00,Brasil,SERGIPE,CAPELA,Mata Atlântica,2016,1,1
2698,191135218,84911f0c-5aba-11e8-911c-28924ad12c5c,-12.379,-46.723,2016-01-01 16:33:00,Brasil,TOCANTINS,TAGUATINGA,Cerrado,2016,1,1
2700,191135232,84911f0e-5aba-11e8-911c-28924ad12c5c,-3.301,-51.529,2016-01-01 16:35:00,Brasil,PARÁ,ANAPU,Amazônia,2016,1,1
2703,191135243,84911f11-5aba-11e8-911c-28924ad12c5c,-1.759,-46.271,2016-01-01 16:36:00,Brasil,MARANHÃO,BOA VISTA DO GURUPI,Amazônia,2016,1,1
2706,191137769,84911f14-5aba-11e8-911c-28924ad12c5c,-9.556,-62.963,2016-01-01 18:12:00,Brasil,RONDÔNIA,RIO CRESPO,Amazônia,2016,1,1
2747,191135210,4b72254d-5abb-11e8-911c-28924ad12c5c,-16.218,-51.767,2016-01-01 16:32:00,Brasil,GOIÁS,PIRANHAS,Cerrado,2016,1,1
2758,191135223,4b722558-5abb-11e8-911c-28924ad12c5c,-10.208,-44.694,2016-01-01 16:33:00,Brasil,PIAUÍ,PARNAGUÁ,Cerrado,2016,1,1
2760,191135230,67e25983-5abb-11e8-911c-28924ad12c5c,-6.772,-38.594,2016-01-01 16:34:00,Brasil,PARAÍBA,SANTA HELENA,Caatinga,2016,1,1
2793,191215933,84911f34-5aba-11e8-911c-28924ad12c5c,-3.692,-50.774,2016-01-02 17:18:00,Brasil,PARÁ,PACAJÁ,Amazônia,2016,1,2
2815,191215688,86db12fe-5aba-11e8-911c-28924ad12c5c,-14.321,-53.341,2016-01-02 17:15:00,Brasil,MATO GROSSO,CAMPINÁPOLIS,Cerrado,2016,1,2
2823,191211921,4b74ec4c-5abb-11e8-911c-28924ad12c5c,-13.199,-38.985,2016-01-02 15:37:00,Brasil,BAHIA,JAGUARIPE,Mata Atlântica,2016,1,2
2829,191211928,4b74ec52-5abb-11e8-911c-28924ad12c5c,-7.297,-38.849,2016-01-02 15:39:00,Brasil,CEARÁ,MILAGRES,Caatinga,2016,1,2
2830,191211929,4b74ec53-5abb-11e8-911c-28924ad12c5c,-7.217,-37.404,2016-01-02 15:39:00,Brasil,PARAÍBA,MÃE D'ÁGUA,Caatinga,2016,1,2
2832,191211931,4b74ec55-5abb-11e8-911c-28924ad12c5c,-7.8,-38.155,2016-01-02 15:39:00,Brasil,PERNAMBUCO,SANTA CRUZ DA BAIXA VERDE,Caatinga,2016,1,2
2834,191215581,4b74ec58-5abb-11e8-911c-28924ad12c5c,-22.363,-52.371,2016-01-02 17:13:00,Brasil,SÃO PAULO,TEODORO SAMPAIO,Mata Atlântica,2016,1,2
2838,191215586,4b74ec5c-5abb-11e8-911c-28924ad12c5c,-19.834,-56.935,2016-01-02 17:14:00,Brasil,MATO GROSSO DO SUL,MIRANDA,Cerrado,2016,1,2
2839,191215587,4b74ec5d-5abb-11e8-911c-28924ad12c5c,-17.711,-50.056,2016-01-02 17:14:00,Brasil,GOIÁS,EDÉIA,Cerrado,2016,1,2
2846,191215598,4b74ec66-5abb-11e8-911c-28924ad12c5c,-17.705,-44.444,2016-01-02 17:14:00,Brasil,MINAS GERAIS,LASSANCE,Cerrado,2016,1,2
2867,191215922,84911f29-5aba-11e8-911c-28924ad12c5c,-3.545,-44.91,2016-01-02 17:18:00,Brasil,MARANHÃO,VITÓRIA DO MEARIM,Amazônia,2016,1,2
2924,191215575,5a0da960-5abb-11e8-911c-28924ad12c5c,-26.455,-53.507,2016-01-02 17:12:00,Brasil,SANTA CATARINA,SÃO JOSÉ DO CEDRO,Mata Atlântica,2016,1,2
2925,191215577,5a0da962-5abb-11e8-911c-28924ad12c5c,-22.786,-52.506,2016-01-02 17:13:00,Brasil,PARANÁ,PARANAVAÍ,Mata Atlântica,2016,1,2
2926,191215578,5a0da963-5abb-11e8-911c-28924ad12c5c,-19.869,-40.196,2016-01-02 17:13:00,Brasil,ESPÍRITO SANTO,ARACRUZ,Mata Atlântica,2016,1,2
2932,193808437,59560bbb-5abb-11e8-911c-28924ad12c5c,-16.48,-39.435,2016-01-30 16:01:00,Brasil,BAHIA,PORTO SEGURO,Mata Atlântica,2016,1,30
2936,193808446,59560bc0-5abb-11e8-911c-28924ad12c5c,-6.951,-39.423,2016-01-30 16:03:00,Brasil,CEARÁ,FARIAS BRITO,Caatinga,2016,1,30
2937,193808447,59560bc1-5abb-11e8-911c-28924ad12c5c,-7.391,-41.3,2016-01-30 16:03:00,Brasil,PIAUÍ,JAICÓS,Caatinga,2016,1,30
2942,193808486,59560bc6-5abb-11e8-911c-28924ad12c5c,-5.816,-37.256,2016-01-30 16:04:00,Brasil,RIO GRANDE DO NORTE,AUGUSTO SEVERO,Caatinga,2016,1,30
2971,191302316,84911fc9-5aba-11e8-911c-28924ad12c5c,-1.212,-52.098,2016-01-03 16:24:00,Brasil,AMAPÁ,VITÓRIA DO JARI,Amazônia,2016,1,3
2972,191303845,86c9d5e1-5aba-11e8-911c-28924ad12c5c,-13.478,-53.814,2016-01-03 17:58:00,Brasil,MATO GROSSO,GAÚCHA DO NORTE,Amazônia,2016,1,3
2976,191304106,86c9d5e5-5aba-11e8-911c-28924ad12c5c,-12.01,-63.681,2016-01-03 17:59:00,Brasil,RONDÔNIA,SÃO FRANCISCO DO GUAPORÉ,Amazônia,2016,1,3
2980,191305224,86c9d5e9-5aba-11e8-911c-28924ad12c5c,-2.519,-66.089,2016-01-03 18:02:00,Brasil,AMAZONAS,FONTE BOA,Amazônia,2016,1,3
2984,191302170,4b759692-5abb-11e8-911c-28924ad12c5c,-4.818,-38.429,2016-01-03 16:22:00,Brasil,CEARÁ,RUSSAS,Caatinga,2016,1,3
2992,191302181,4b75969a-5abb-11e8-911c-28924ad12c5c,-5.098,-36.884,2016-01-03 16:22:00,Brasil,RIO GRANDE DO NORTE,PORTO DO MANGUE,Caatinga,2016,1,3
3003,191302156,4b7596a5-5abb-11e8-911c-28924ad12c5c,-9.312,-48.12,2016-01-03 16:21:00,Brasil,TOCANTINS,PEDRO AFONSO,Cerrado,2016,1,3
3126,191302146,4b75967c-5abb-11e8-911c-28924ad12c5c,-7.464,-38.052,2016-01-03 16:21:00,Brasil,PARAÍBA,PEDRA BRANCA,Caatinga,2016,1,3
3243,191765352,8491a587-5aba-11e8-911c-28924ad12c5c,-2.392,-55.088,2016-01-08 16:42:00,Brasil,PARÁ,SANTARÉM,Amazônia,2016,1,8
3256,191765365,8491a594-5aba-11e8-911c-28924ad12c5c,0.798,-50.632,2016-01-08 16:43:00,Brasil,AMAPÁ,MACAPÁ,Amazônia,2016,1,8
3259,191770990,8491a597-5aba-11e8-911c-28924ad12c5c,-10.837,-69.416,2016-01-08 18:18:00,Brasil,ACRE,ASSIS BRASIL,Amazônia,2016,1,8
3260,191771093,86db130e-5aba-11e8-911c-28924ad12c5c,-4.399,-70.207,2016-01-08 18:20:00,Brasil,AMAZONAS,ATALAIA DO NORTE,Amazônia,2016,1,8
3262,191765341,4b8a0173-5abb-11e8-911c-28924ad12c5c,-18.925,-39.843,2016-01-08 16:37:00,Brasil,ESPÍRITO SANTO,SÃO MATEUS,Mata Atlântica,2016,1,8
3263,191765342,4b8a0174-5abb-11e8-911c-28924ad12c5c,-19.904,-41.533,2016-01-08 16:37:00,Brasil,MINAS GERAIS,MUTUM,Mata Atlântica,2016,1,8
3264,191765325,5a0daaf5-5abb-11e8-911c-28924ad12c5c,-24.751,-49.15,2016-01-08 16:36:00,Brasil,PARANÁ,CERRO AZUL,Mata Atlântica,2016,1,8
3265,191765326,5a0daaf6-5abb-11e8-911c-28924ad12c5c,-21.624,-48.216,2016-01-08 16:36:00,Brasil,SÃO PAULO,ARARAQUARA,Cerrado,2016,1,8
3273,191765343,5a0dab01-5abb-11e8-911c-28924ad12c5c,-17.462,-39.227,2016-01-08 16:37:00,Brasil,BAHIA,ALCOBAÇA,Mata Atlântica,2016,1,8
3316,191389679,84911fd2-5aba-11e8-911c-28924ad12c5c,-13.153,-54.422,2016-01-04 17:03:00,Brasil,MATO GROSSO,PARANATINGA,Amazônia,2016,1,4
3320,191667113,8491a584-5aba-11e8-911c-28924ad12c5c,2.655,-63.752,2016-01-07 17:39:00,Brasil,RORAIMA,ALTO ALEGRE,Amazônia,2016,1,7
3321,191664539,8491a53b-5aba-11e8-911c-28924ad12c5c,-3.565,-45.457,2016-01-07 15:58:00,Brasil,MARANHÃO,MONÇÃO,Amazônia,2016,1,7
3322,191666585,8491a53c-5aba-11e8-911c-28924ad12c5c,-12.363,-55.941,2016-01-07 17:34:00,Brasil,MATO GROSSO,SORRISO,Cerrado,2016,1,7
3358,191389728,86c9d5ef-5aba-11e8-911c-28924ad12c5c,-10.141,-49.831,2016-01-04 17:04:00,Brasil,TOCANTINS,PIUM,Cerrado,2016,1,4
3434,191390010,8491a4b6-5aba-11e8-911c-28924ad12c5c,0.913,-50.703,2016-01-04 17:07:00,Brasil,AMAPÁ,CUTIAS,Amazônia,2016,1,4
3577,191666661,86ca590c-5aba-11e8-911c-28924ad12c5c,-9.27,-63.593,2016-01-07 17:35:00,Brasil,RONDÔNIA,CANDEIAS DO JAMARI,Amazônia,2016,1,7
3598,191664007,4b88dc8d-5abb-11e8-911c-28924ad12c5c,-18.036,-39.536,2016-01-07 15:54:00,Brasil,BAHIA,MUCURI,Mata Atlântica,2016,1,7
3599,191664008,4b88dc8e-5abb-11e8-911c-28924ad12c5c,-18.92,-39.841,2016-01-07 15:54:00,Brasil,ESPÍRITO SANTO,SÃO MATEUS,Mata Atlântica,2016,1,7
3603,191664421,4b88dc92-5abb-11e8-911c-28924ad12c5c,-7.991,-37.304,2016-01-07 15:57:00,Brasil,PERNAMBUCO,SERTÂNIA,Caatinga,2016,1,7
3605,191664560,4b88dc94-5abb-11e8-911c-28924ad12c5c,-4.117,-38.953,2016-01-07 15:58:00,Brasil,CEARÁ,CARIDADE,Caatinga,2016,1,7
3606,191666422,4b88dccd-5abb-11e8-911c-28924ad12c5c,-24.707,-54.246,2016-01-07 17:31:00,Brasil,PARANÁ,ENTRE RIOS DO OESTE,Mata Atlântica,2016,1,7
3613,191666465,4b88dce0-5abb-11e8-911c-28924ad12c5c,-22.1,-55.664,2016-01-07 17:32:00,Brasil,MATO GROSSO DO SUL,PONTA PORÃ,Cerrado,2016,1,7
3645,191566394,8491a520-5aba-11e8-911c-28924ad12c5c,-1.999,-47.394,2016-01-06 16:54:00,Brasil,PARÁ,IRITUIA,Amazônia,2016,1,6
3646,191566312,8491a4f6-5aba-11e8-911c-28924ad12c5c,-4.084,-47.249,2016-01-06 16:53:00,Brasil,MARANHÃO,ITINGA DO MARANHÃO,Amazônia,2016,1,6
3698,191566292,86ca58e0-5aba-11e8-911c-28924ad12c5c,-11.879,-51.074,2016-01-06 16:51:00,Brasil,MATO GROSSO,SÃO FÉLIX DO ARAGUAIA,Cerrado,2016,1,6
3702,191566307,86ca58e4-5aba-11e8-911c-28924ad12c5c,-7.842,-47.703,2016-01-06 16:52:00,Brasil,TOCANTINS,GOIATINS,Cerrado,2016,1,6
3719,191389882,4b8161ae-5abb-11e8-911c-28924ad12c5c,-3.022,-41.729,2016-01-04 17:06:00,Brasil,PIAUÍ,PARNAÍBA,Caatinga,2016,1,4
3726,191386900,5a0da9be-5abb-11e8-911c-28924ad12c5c,-9.78,-36.065,2016-01-04 15:26:00,Brasil,ALAGOAS,SÃO MIGUEL DOS CAMPOS,Mata Atlântica,2016,1,4
3741,191566491,86ca58fc-5aba-11e8-911c-28924ad12c5c,1.377,-50.933,2016-01-06 16:55:00,Brasil,AMAPÁ,TARTARUGALZINHO,Amazônia,2016,1,6
3742,191566260,4b862fe8-5abb-11e8-911c-28924ad12c5c,-25.54,-49.498,2016-01-06 16:48:00,Brasil,PARANÁ,ARAUCÁRIA,Mata Atlântica,2016,1,6
3743,191566262,4b862fe9-5abb-11e8-911c-28924ad12c5c,-21.005,-51.583,2016-01-06 16:49:00,Brasil,SÃO PAULO,CASTILHO,Mata Atlântica,2016,1,6
3744,191566263,4b862fea-5abb-11e8-911c-28924ad12c5c,-21.758,-44.753,2016-01-06 16:49:00,Brasil,MINAS GERAIS,CRUZÍLIA,Mata Atlântica,2016,1,6
3748,191566267,4b862fee-5abb-11e8-911c-28924ad12c5c,-21.476,-52.387,2016-01-06 16:49:00,Brasil,MATO GROSSO DO SUL,SANTA RITA DO PARDO,Cerrado,2016,1,6
3750,191566271,4b862ff0-5abb-11e8-911c-28924ad12c5c,-16.012,-38.979,2016-01-06 16:50:00,Brasil,BAHIA,BELMONTE,Mata Atlântica,2016,1,6
3959,191463570,5b169a0e-5abb-11e8-911c-28924ad12c5c,-20.63,-41.269,2016-01-05 16:06:00,Brasil,ESPÍRITO SANTO,CASTELO,Mata Atlântica,2016,1,5
3961,191463572,5b169a10-5abb-11e8-911c-28924ad12c5c,-7.521,-37.825,2016-01-05 16:09:00,Brasil,PARAÍBA,JURU,Caatinga,2016,1,5
3962,191463573,5b169a11-5abb-11e8-911c-28924ad12c5c,-8.06,-37.216,2016-01-05 16:09:00,Brasil,PERNAMBUCO,SERTÂNIA,Caatinga,2016,1,5
3971,191467353,4b81dfc0-5abb-11e8-911c-28924ad12c5c,-20.346,-57.488,2016-01-05 17:44:00,Brasil,MATO GROSSO DO SUL,CORUMBÁ,Pantanal,2016,1,5
3976,191463638,594eeed3-5abb-11e8-911c-28924ad12c5c,-5.196,-37.014,2016-01-05 16:10:00,Brasil,RIO GRANDE DO NORTE,SERRA DO MEL,Caatinga,2016,1,5
3987,191463583,5a0daa28-5abb-11e8-911c-28924ad12c5c,-9.385,-36.571,2016-01-05 16:09:00,Brasil,ALAGOAS,PALMEIRA DOS ÍNDIOS,Caatinga,2016,1,5
3989,191467731,5a0daa38-5abb-11e8-911c-28924ad12c5c,3.339,-62.989,2016-01-05 17:51:00,Brasil,RORAIMA,ALTO ALEGRE,Amazônia,2016,1,5
4039,191467450,8491a4e6-5aba-11e8-911c-28924ad12c5c,-12.834,-62.01,2016-01-05 17:47:00,Brasil,RONDÔNIA,ALTO ALEGRE DOS PARECIS,Amazônia,2016,1,5
4046,191467468,8491a4ed-5aba-11e8-911c-28924ad12c5c,-4.153,-55.383,2016-01-05 17:49:00,Brasil,PARÁ,RURÓPOLIS,Amazônia,2016,1,5
4157,192026290,86ca5a2d-5aba-11e8-911c-28924ad12c5c,-13.124,-51.071,2016-01-11 17:09:00,Brasil,MATO GROSSO,COCALINHO,Cerrado,2016,1,11
4159,192027345,86ca5a2f-5aba-11e8-911c-28924ad12c5c,-10.553,-49.754,2016-01-11 17:10:00,Brasil,TOCANTINS,LAGOA DA CONFUSÃO,Cerrado,2016,1,11
4197,192022222,4b905abc-5abb-11e8-911c-28924ad12c5c,-9.622,-36.362,2016-01-11 15:32:00,Brasil,ALAGOAS,ANADIA,Mata Atlântica,2016,1,11
4199,192024171,59509499-5abb-11e8-911c-28924ad12c5c,-29.818,-52.383,2016-01-11 17:05:00,Brasil,RIO GRANDE DO SUL,SANTA CRUZ DO SUL,Pampa,2016,1,11
4200,192024183,5950949b-5abb-11e8-911c-28924ad12c5c,-28.959,-49.534,2016-01-11 17:05:00,Brasil,SANTA CATARINA,ARARANGUÁ,Mata Atlântica,2016,1,11
4206,192024400,595094a4-5abb-11e8-911c-28924ad12c5c,-25.523,-49.292,2016-01-11 17:06:00,Brasil,PARANÁ,CURITIBA,Mata Atlântica,2016,1,11
4208,192025859,595094ab-5abb-11e8-911c-28924ad12c5c,-19.702,-50.97,2016-01-11 17:08:00,Brasil,MINAS GERAIS,CARNEIRINHO,Mata Atlântica,2016,1,11
4263,191948974,8491a638-5aba-11e8-911c-28924ad12c5c,0.489,-63.676,2016-01-10 18:09:00,Brasil,AMAZONAS,BARCELOS,Amazônia,2016,1,10
4267,191858884,81f7872d-5aba-11e8-911c-28924ad12c5c,-1.826,-53.971,2016-01-09 17:25:00,Brasil,PARÁ,MONTE ALEGRE,Amazônia,2016,1,9
4269,191942773,8491a621-5aba-11e8-911c-28924ad12c5c,-2.618,-44.949,2016-01-10 16:29:00,Brasil,MARANHÃO,PALMEIRÂNDIA,Amazônia,2016,1,10
4273,191942777,8491a625-5aba-11e8-911c-28924ad12c5c,-2.39,-47.683,2016-01-10 16:29:00,Brasil,PARÁ,IPIXUNA DO PARÁ,Amazônia,2016,1,10
4282,191948917,8491a62e-5aba-11e8-911c-28924ad12c5c,-9.781,-64.736,2016-01-10 18:06:00,Brasil,RONDÔNIA,PORTO VELHO,Amazônia,2016,1,10
4298,191948993,8491a643-5aba-11e8-911c-28924ad12c5c,2.014,-61.422,2016-01-10 18:09:00,Brasil,RORAIMA,CARACARAÍ,Amazônia,2016,1,10
4313,191942748,4b8d35ae-5abb-11e8-911c-28924ad12c5c,-15.527,-38.996,2016-01-10 16:26:00,Brasil,BAHIA,CANAVIEIRAS,Mata Atlântica,2016,1,10
4314,191942750,4b8d35af-5abb-11e8-911c-28924ad12c5c,-15.485,-41.915,2016-01-10 16:26:00,Brasil,MINAS GERAIS,SÃO JOÃO DO PARAÍSO,Mata Atlântica,2016,1,10
4316,191942753,4b8d35b1-5abb-11e8-911c-28924ad12c5c,-14.721,-46.416,2016-01-10 16:26:00,Brasil,GOIÁS,SÍTIO D'ABADIA,Cerrado,2016,1,10
4324,191942698,59500dca-5abb-11e8-911c-28924ad12c5c,-18.612,-39.835,2016-01-10 16:25:00,Brasil,ESPÍRITO SANTO,CONCEIÇÃO DA BARRA,Mata Atlântica,2016,1,10
4334,191942674,5a0dabd4-5abb-11e8-911c-28924ad12c5c,-21.304,-50.351,2016-01-10 16:24:00,Brasil,SÃO PAULO,BIRIGUI,Mata Atlântica,2016,1,10
4362,191858932,86ca59b1-5aba-11e8-911c-28924ad12c5c,-2.344,-57.588,2016-01-09 17:25:00,Brasil,AMAZONAS,URUCARÁ,Amazônia,2016,1,9
4469,191858442,8491a598-5aba-11e8-911c-28924ad12c5c,-12.431,-56.206,2016-01-09 17:22:00,Brasil,MATO GROSSO,TAPURAH,Cerrado,2016,1,9
4470,191858446,8491a599-5aba-11e8-911c-28924ad12c5c,-9.911,-63.042,2016-01-09 17:23:00,Brasil,RONDÔNIA,ARIQUEMES,Amazônia,2016,1,9
4538,191859320,8491a5df-5aba-11e8-911c-28924ad12c5c,0.666,-59.563,2016-01-09 17:26:00,Brasil,RORAIMA,CAROEBE,Amazônia,2016,1,9
4675,191856908,59500b7b-5abb-11e8-911c-28924ad12c5c,-18.545,-39.791,2016-01-09 15:42:00,Brasil,ESPÍRITO SANTO,CONCEIÇÃO DA BARRA,Mata Atlântica,2016,1,9
4767,192201408,86ca5a59-5aba-11e8-911c-28924ad12c5c,-12.512,-56.197,2016-01-13 16:58:00,Brasil,MATO GROSSO,TAPURAH,Cerrado,2016,1,13
4775,192201416,86db132a-5aba-11e8-911c-28924ad12c5c,-2.666,-57.519,2016-01-13 17:00:00,Brasil,AMAZONAS,URUCURITUBA,Amazônia,2016,1,13
4776,192201417,86db132b-5aba-11e8-911c-28924ad12c5c,-1.613,-45.903,2016-01-13 17:00:00,Brasil,MARANHÃO,AMAPÁ DO MARANHÃO,Amazônia,2016,1,13
4794,192201400,5a0dacab-5abb-11e8-911c-28924ad12c5c,-26.91,-50.055,2016-01-13 16:54:00,Brasil,SANTA CATARINA,RIO DO CAMPO,Mata Atlântica,2016,1,13
4796,192201403,5a0dacae-5abb-11e8-911c-28924ad12c5c,-22.697,-51.754,2016-01-13 16:55:00,Brasil,PARANÁ,SANTO INÁCIO,Mata Atlântica,2016,1,13
4800,192116493,8491a73f-5aba-11e8-911c-28924ad12c5c,2.996,-61.043,2016-01-12 17:57:00,Brasil,RORAIMA,ALTO ALEGRE,Amazônia,2016,1,12
4804,192110819,86ca5a4f-5aba-11e8-911c-28924ad12c5c,-8.614,-46.845,2016-01-12 16:15:00,Brasil,MARANHÃO,BALSAS,Cerrado,2016,1,12
4805,192116069,86ca5a50-5aba-11e8-911c-28924ad12c5c,-3.552,-60.458,2016-01-12 17:55:00,Brasil,AMAZONAS,MANAQUIRI,Amazônia,2016,1,12
4809,192110888,67e25ae0-5abb-11e8-911c-28924ad12c5c,-6.884,-34.983,2016-01-12 16:15:00,Brasil,PARAÍBA,RIO TINTO,Mata Atlântica,2016,1,12
4810,192110889,67e25ae1-5abb-11e8-911c-28924ad12c5c,-7.788,-38.915,2016-01-12 16:15:00,Brasil,PERNAMBUCO,SÃO JOSÉ DO BELMONTE,Caatinga,2016,1,12
4811,192110906,67e25ae2-5abb-11e8-911c-28924ad12c5c,-7.911,-42.398,2016-01-12 16:15:00,Brasil,PIAUÍ,SOCORRO DO PIAUÍ,Caatinga,2016,1,12
4815,192110968,67e25ae6-5abb-11e8-911c-28924ad12c5c,-6.137,-39.528,2016-01-12 16:16:00,Brasil,CEARÁ,ACOPIARA,Caatinga,2016,1,12
4820,192110916,8848bb36-5aba-11e8-911c-28924ad12c5c,-9.739,-47.273,2016-01-12 16:15:00,Brasil,TOCANTINS,RIO SONO,Cerrado,2016,1,12
4857,192111021,8491a6e1-5aba-11e8-911c-28924ad12c5c,-3.339,-46.999,2016-01-12 16:17:00,Brasil,PARÁ,PARAGOMINAS,Amazônia,2016,1,12
4914,192115790,8491a720-5aba-11e8-911c-28924ad12c5c,-14.554,-60.041,2016-01-12 17:52:00,Brasil,MATO GROSSO,VILA BELA DA SANTÍSSIMA TRINDADE,Amazônia,2016,1,12
4943,194495671,8493a514-5aba-11e8-911c-28924ad12c5c,4.129,-61.003,2016-02-06 17:51:00,Brasil,RORAIMA,PACARAIMA,Amazônia,2016,2,6
4944,194491999,4bd9f609-5abb-11e8-911c-28924ad12c5c,-17.888,-39.773,2016-02-06 16:07:00,Brasil,BAHIA,NOVA VIÇOSA,Mata Atlântica,2016,2,6
5008,192115690,4b928fd2-5abb-11e8-911c-28924ad12c5c,-28.384,-55.421,2016-01-12 17:48:00,Brasil,RIO GRANDE DO SUL,SANTO ANTÔNIO DAS MISSÕES,Pampa,2016,1,12
5034,192110745,5a0dac41-5abb-11e8-911c-28924ad12c5c,-15.843,-40.939,2016-01-12 16:13:00,Brasil,MINAS GERAIS,ALMENARA,Mata Atlântica,2016,1,12
5089,194492006,4bd9f610-5abb-11e8-911c-28924ad12c5c,-15.827,-41.403,2016-02-06 16:07:00,Brasil,MINAS GERAIS,ÁGUAS VERMELHAS,Mata Atlântica,2016,2,6
5125,194492017,4bd9f61b-5abb-11e8-911c-28924ad12c5c,-8.486,-41.325,2016-02-06 16:09:00,Brasil,PIAUÍ,QUEIMADA NOVA,Caatinga,2016,2,6
5126,194492018,4bd9f61c-5abb-11e8-911c-28924ad12c5c,-9.224,-36.501,2016-02-06 16:09:00,Brasil,PERNAMBUCO,LAGOA DO OURO,Caatinga,2016,2,6
5130,194492025,4bd9f621-5abb-11e8-911c-28924ad12c5c,-4.51,-37.887,2016-02-06 16:10:00,Brasil,CEARÁ,FORTIM,Caatinga,2016,2,6
5133,194492030,4bd9f624-5abb-11e8-911c-28924ad12c5c,-6.221,-37.311,2016-02-06 16:10:00,Brasil,PARAÍBA,SÃO JOSÉ DO BREJO DO CRUZ,Caatinga,2016,2,6
5134,194492031,4bd9f625-5abb-11e8-911c-28924ad12c5c,-2.671,-43.127,2016-02-06 16:11:00,Brasil,MARANHÃO,SANTO AMARO DO MARANHÃO,Cerrado,2016,2,6
5135,194495285,4bd9f62f-5abb-11e8-911c-28924ad12c5c,-23.866,-54.793,2016-02-06 17:43:00,Brasil,MATO GROSSO DO SUL,SETE QUEDAS,Mata Atlântica,2016,2,6
5136,194495300,4bd9f63c-5abb-11e8-911c-28924ad12c5c,-21.152,-48.991,2016-02-06 17:44:00,Brasil,SÃO PAULO,CATANDUVA,Mata Atlântica,2016,2,6
5139,194495313,4bd9f63f-5abb-11e8-911c-28924ad12c5c,-18.088,-50.912,2016-02-06 17:45:00,Brasil,GOIÁS,RIO VERDE,Cerrado,2016,2,6
5178,192285346,4b974daa-5abb-11e8-911c-28924ad12c5c,-19.096,-39.736,2016-01-14 16:00:00,Brasil,ESPÍRITO SANTO,SÃO MATEUS,Mata Atlântica,2016,1,14
5179,192285533,4b974dab-5abb-11e8-911c-28924ad12c5c,-2.928,-40.912,2016-01-14 16:05:00,Brasil,CEARÁ,CAMOCIM,Caatinga,2016,1,14
5180,192285524,59519a3b-5abb-11e8-911c-28924ad12c5c,-2.935,-41.941,2016-01-14 16:05:00,Brasil,MARANHÃO,ARAIOSES,Caatinga,2016,1,14
5181,192285500,5a0e29a2-5abb-11e8-911c-28924ad12c5c,-16.464,-39.108,2016-01-14 16:01:00,Brasil,BAHIA,PORTO SEGURO,Mata Atlântica,2016,1,14
5199,194581746,86caecde-5aba-11e8-911c-28924ad12c5c,1.377,-60.522,2016-02-07 16:55:00,Brasil,RORAIMA,CARACARAÍ,Amazônia,2016,2,7
5200,194581418,4bdc1bca-5abb-11e8-911c-28924ad12c5c,-21.765,-48.838,2016-02-07 16:49:00,Brasil,SÃO PAULO,IBITINGA,Cerrado,2016,2,7
5201,194581419,4bdc1bcb-5abb-11e8-911c-28924ad12c5c,-19.104,-44.839,2016-02-07 16:49:00,Brasil,MINAS GERAIS,POMPÉU,Cerrado,2016,2,7
5207,192287756,8491a77a-5aba-11e8-911c-28924ad12c5c,-0.689,-63.198,2016-01-14 17:44:00,Brasil,AMAZONAS,BARCELOS,Amazônia,2016,1,14
5232,194581422,4bdc1bce-5abb-11e8-911c-28924ad12c5c,-21.477,-52.385,2016-02-07 16:49:00,Brasil,MATO GROSSO DO SUL,SANTA RITA DO PARDO,Cerrado,2016,2,7
5233,194581426,4bdc1bcf-5abb-11e8-911c-28924ad12c5c,-15.633,-47.437,2016-02-07 16:50:00,Brasil,DISTRITO FEDERAL,BRASÍLIA,Cerrado,2016,2,7
5234,194581427,4bdc1bd0-5abb-11e8-911c-28924ad12c5c,-14.992,-46.676,2016-02-07 16:50:00,Brasil,GOIÁS,FLORES DE GOIÁS,Cerrado,2016,2,7
5238,192287712,86ca5a7f-5aba-11e8-911c-28924ad12c5c,-2.809,-55.229,2016-01-14 17:43:00,Brasil,PARÁ,SANTARÉM,Amazônia,2016,1,14
5245,194581624,4bdc1bd5-5abb-11e8-911c-28924ad12c5c,-5.951,-42.681,2016-02-07 16:53:00,Brasil,PIAUÍ,ÁGUA BRANCA,Caatinga,2016,2,7
5345,192287009,86ca5a5b-5aba-11e8-911c-28924ad12c5c,-10.271,-64.87,2016-01-14 17:41:00,Brasil,RONDÔNIA,NOVA MAMORÉ,Amazônia,2016,1,14
5346,192287013,86ca5a5c-5aba-11e8-911c-28924ad12c5c,-10.38,-61.101,2016-01-14 17:41:00,Brasil,MATO GROSSO,RONDOLÂNDIA,Amazônia,2016,1,14
5381,194581495,5958a002-5abb-11e8-911c-28924ad12c5c,-12.416,-45.667,2016-02-07 16:51:00,Brasil,BAHIA,SÃO DESIDÉRIO,Cerrado,2016,2,7
5384,194581153,5b0672a8-5abb-11e8-911c-28924ad12c5c,-24.138,-49.535,2016-02-07 16:48:00,Brasil,PARANÁ,SENGÉS,Cerrado,2016,2,7
5392,192456492,84922a95-5aba-11e8-911c-28924ad12c5c,0.677,-60.617,2016-01-16 17:32:00,Brasil,RORAIMA,RORAINÓPOLIS,Amazônia,2016,1,16
5395,192451302,4b9bbcdf-5abb-11e8-911c-28924ad12c5c,-3.406,-41.911,2016-01-16 15:52:00,Brasil,PIAUÍ,CAXINGÓ,Caatinga,2016,1,16
5401,192451293,59519b31-5abb-11e8-911c-28924ad12c5c,-8.347,-35.277,2016-01-16 15:51:00,Brasil,PERNAMBUCO,ESCADA,Mata Atlântica,2016,1,16
5402,192451294,59519b32-5abb-11e8-911c-28924ad12c5c,-7.166,-38.165,2016-01-16 15:51:00,Brasil,PARAÍBA,IGARACY,Caatinga,2016,1,16
5437,192456148,84922a48-5aba-11e8-911c-28924ad12c5c,-12.327,-57.358,2016-01-16 17:28:00,Brasil,MATO GROSSO,NOVA MARINGÁ,Amazônia,2016,1,16
5439,192456150,84922a4a-5aba-11e8-911c-28924ad12c5c,-5.611,-47.515,2016-01-16 17:30:00,Brasil,TOCANTINS,SÃO MIGUEL DO TOCANTINS,Cerrado,2016,1,16
5515,192456089,59519b3b-5abb-11e8-911c-28924ad12c5c,-29.833,-51.589,2016-01-16 17:23:00,Brasil,RIO GRANDE DO SUL,TRIUNFO,Pampa,2016,1,16
5521,192456106,59519b4c-5abb-11e8-911c-28924ad12c5c,-27.566,-50.477,2016-01-16 17:24:00,Brasil,SANTA CATARINA,CORREIA PINTO,Mata Atlântica,2016,1,16
5522,192456107,59519b4d-5abb-11e8-911c-28924ad12c5c,-23.713,-54.947,2016-01-16 17:25:00,Brasil,MATO GROSSO DO SUL,TACURU,Mata Atlântica,2016,1,16
5523,192456111,59519b4f-5abb-11e8-911c-28924ad12c5c,-23.509,-51.824,2016-01-16 17:25:00,Brasil,PARANÁ,MARIALVA,Mata Atlântica,2016,1,16
5525,192451270,5a0e2a1b-5abb-11e8-911c-28924ad12c5c,-14.218,-39.271,2016-01-16 15:49:00,Brasil,BAHIA,MARAÚ,Mata Atlântica,2016,1,16
5528,192451275,5a0e2a1e-5abb-11e8-911c-28924ad12c5c,-9.831,-36.125,2016-01-16 15:50:00,Brasil,ALAGOAS,SÃO MIGUEL DOS CAMPOS,Mata Atlântica,2016,1,16
5563,192518792,86ca5ab3-5aba-11e8-911c-28924ad12c5c,-4.354,-45.981,2016-01-17 16:35:00,Brasil,MARANHÃO,SANTA LUZIA,Amazônia,2016,1,17
5564,192518796,86ca5ab4-5aba-11e8-911c-28924ad12c5c,-3.003,-47.621,2016-01-17 16:35:00,Brasil,PARÁ,PARAGOMINAS,Amazônia,2016,1,17
5587,192522557,86ca5acb-5aba-11e8-911c-28924ad12c5c,0.086,-63.407,2016-01-17 18:15:00,Brasil,AMAZONAS,BARCELOS,Amazônia,2016,1,17
5589,192522607,86ca5acd-5aba-11e8-911c-28924ad12c5c,0.168,-60.643,2016-01-17 18:15:00,Brasil,RORAIMA,RORAINÓPOLIS,Amazônia,2016,1,17
5619,192522531,4b9cb430-5abb-11e8-911c-28924ad12c5c,-19.454,-57.949,2016-01-17 18:09:00,Brasil,MATO GROSSO DO SUL,CORUMBÁ,Pantanal,2016,1,17
5620,192518755,5a0e2a64-5abb-11e8-911c-28924ad12c5c,-24.669,-48.545,2016-01-17 16:30:00,Brasil,SÃO PAULO,IPORANGA,Mata Atlântica,2016,1,17
5654,194495355,86edaf66-5aba-11e8-911c-28924ad12c5c,-12.919,-54.226,2016-02-06 17:46:00,Brasil,MATO GROSSO,PARANATINGA,Amazônia,2016,2,6
5658,192364579,59519aa8-5abb-11e8-911c-28924ad12c5c,-17.418,-39.21,2016-01-15 16:43:00,Brasil,BAHIA,PRADO,Mata Atlântica,2016,1,15
5665,194495430,86edaf70-5aba-11e8-911c-28924ad12c5c,-0.245,-67.012,2016-02-06 17:50:00,Brasil,AMAZONAS,SÃO GABRIEL DA CACHOEIRA,Amazônia,2016,2,6
5669,194492021,8493a4fc-5aba-11e8-911c-28924ad12c5c,-11.136,-46.969,2016-02-06 16:09:00,Brasil,TOCANTINS,PONTE ALTA DO TOCANTINS,Cerrado,2016,2,6
5680,192657898,86ca5b77-5aba-11e8-911c-28924ad12c5c,-1.597,-45.366,2016-01-19 16:23:00,Brasil,MARANHÃO,TURIAÇU,Amazônia,2016,1,19
5681,192364786,84922a05-5aba-11e8-911c-28924ad12c5c,-2.627,-47.742,2016-01-15 16:48:00,Brasil,PARÁ,PARAGOMINAS,Amazônia,2016,1,15
5687,192364792,84922a0b-5aba-11e8-911c-28924ad12c5c,-2.186,-45.527,2016-01-15 16:48:00,Brasil,MARANHÃO,TURILÂNDIA,Amazônia,2016,1,15
5696,192364813,84922a14-5aba-11e8-911c-28924ad12c5c,-0.689,-51.708,2016-01-15 16:48:00,Brasil,AMAPÁ,MAZAGÃO,Amazônia,2016,1,15
5710,192657908,84922bda-5aba-11e8-911c-28924ad12c5c,-0.931,-48.225,2016-01-19 16:24:00,Brasil,PARÁ,COLARES,Amazônia,2016,1,19
5712,192666552,84922bdc-5aba-11e8-911c-28924ad12c5c,3.54,-60.941,2016-01-19 18:03:00,Brasil,RORAIMA,AMAJARI,Amazônia,2016,1,19
5729,192666394,86ca5b81-5aba-11e8-911c-28924ad12c5c,-1.01,-62.946,2016-01-19 18:02:00,Brasil,AMAZONAS,BARCELOS,Amazônia,2016,1,19
5746,192661095,59523324-5abb-11e8-911c-28924ad12c5c,-22.92,-55.289,2016-01-19 17:56:00,Brasil,MATO GROSSO DO SUL,ARAL MOREIRA,Mata Atlântica,2016,1,19
5748,192657873,595232e1-5abb-11e8-911c-28924ad12c5c,-14.281,-39.096,2016-01-19 16:20:00,Brasil,BAHIA,ITACARÉ,Mata Atlântica,2016,1,19
5751,192657893,595232e4-5abb-11e8-911c-28924ad12c5c,-9.954,-36.251,2016-01-19 16:21:00,Brasil,ALAGOAS,CORURIPE,Mata Atlântica,2016,1,19
5752,192657894,595232e5-5abb-11e8-911c-28924ad12c5c,-6.954,-39.838,2016-01-19 16:22:00,Brasil,CEARÁ,ASSARÉ,Caatinga,2016,1,19
5756,192364715,8491a7ac-5aba-11e8-911c-28924ad12c5c,-5.561,-47.734,2016-01-15 16:47:00,Brasil,TOCANTINS,SÍTIO NOVO DO TOCANTINS,Cerrado,2016,1,15
5803,192373589,84922a43-5aba-11e8-911c-28924ad12c5c,0.224,-69.782,2016-01-15 18:27:00,Brasil,AMAZONAS,SÃO GABRIEL DA CACHOEIRA,Amazônia,2016,1,15
5808,192373157,86ca5ab2-5aba-11e8-911c-28924ad12c5c,-7.845,-72.31,2016-01-15 18:25:00,Brasil,ACRE,CRUZEIRO DO SUL,Amazônia,2016,1,15
5811,192364706,4b9884b2-5abb-11e8-911c-28924ad12c5c,-3.521,-39.823,2016-01-15 16:47:00,Brasil,CEARÁ,MIRAÍMA,Caatinga,2016,1,15
5813,192364713,4b9884b4-5abb-11e8-911c-28924ad12c5c,-3.045,-41.651,2016-01-15 16:47:00,Brasil,PIAUÍ,BOM PRINCÍPIO DO PIAUÍ,Caatinga,2016,1,15
5820,192364458,5a0e29df-5abb-11e8-911c-28924ad12c5c,-31.207,-52.883,2016-01-15 16:40:00,Brasil,RIO GRANDE DO SUL,CANGUÇU,Pampa,2016,1,15
5821,192364526,5a0e29e0-5abb-11e8-911c-28924ad12c5c,-26.372,-51.546,2016-01-15 16:41:00,Brasil,PARANÁ,GENERAL CARNEIRO,Mata Atlântica,2016,1,15
5830,192740139,4ba3bdb7-5abb-11e8-911c-28924ad12c5c,-17.666,-54.214,2016-01-20 17:02:00,Brasil,MATO GROSSO DO SUL,SONORA,Cerrado,2016,1,20
5832,192740214,4ba3bddd-5abb-11e8-911c-28924ad12c5c,4.007,-61.294,2016-01-20 17:08:00,Brasil,RORAIMA,AMAJARI,Amazônia,2016,1,20
5856,192740040,4ba3bd7d-5abb-11e8-911c-28924ad12c5c,-24.976,-51.093,2016-01-20 17:00:00,Brasil,PARANÁ,PRUDENTÓPOLIS,Mata Atlântica,2016,1,20
5897,192740137,4ba3bdb5-5abb-11e8-911c-28924ad12c5c,-19.525,-48.848,2016-01-20 17:02:00,Brasil,MINAS GERAIS,PRATA,Cerrado,2016,1,20
5900,192740142,4ba3bdbb-5abb-11e8-911c-28924ad12c5c,-16.379,-55.177,2016-01-20 17:03:00,Brasil,MATO GROSSO,JUSCIMEIRA,Cerrado,2016,1,20
5911,192740127,5952afff-5abb-11e8-911c-28924ad12c5c,-21.647,-47.069,2016-01-20 17:01:00,Brasil,SÃO PAULO,CASA BRANCA,Cerrado,2016,1,20
5922,192740192,5a0e2afe-5abb-11e8-911c-28924ad12c5c,-3.431,-52.028,2016-01-20 17:06:00,Brasil,PARÁ,ALTAMIRA,Amazônia,2016,1,20
5924,192590251,4b9ee718-5abb-11e8-911c-28924ad12c5c,-21.921,-50.842,2016-01-18 17:13:00,Brasil,SÃO PAULO,PARAPUÃ,Mata Atlântica,2016,1,18
5925,192590749,84922b57-5aba-11e8-911c-28924ad12c5c,-1.405,-52.321,2016-01-18 17:19:00,Brasil,PARÁ,ALMEIRIM,Amazônia,2016,1,18
5929,192591058,86ca5b16-5aba-11e8-911c-28924ad12c5c,0.843,-59.428,2016-01-18 17:20:00,Brasil,RORAIMA,CAROEBE,Amazônia,2016,1,18
5944,192590814,84922b96-5aba-11e8-911c-28924ad12c5c,-1.985,-56.995,2016-01-18 17:19:00,Brasil,AMAZONAS,NHAMUNDÁ,Amazônia,2016,1,18
6022,192590160,4b9ee6bb-5abb-11e8-911c-28924ad12c5c,-29.9,-52.429,2016-01-18 17:11:00,Brasil,RIO GRANDE DO SUL,RIO PARDO,Pampa,2016,1,18
6034,192590175,4b9ee6cb-5abb-11e8-911c-28924ad12c5c,-28.781,-49.835,2016-01-18 17:11:00,Brasil,SANTA CATARINA,TIMBÉ DO SUL,Mata Atlântica,2016,1,18
6098,192590649,84922aff-5aba-11e8-911c-28924ad12c5c,-4.517,-46.105,2016-01-18 17:18:00,Brasil,MARANHÃO,SANTA LUZIA,Amazônia,2016,1,18
6141,192590801,84922b89-5aba-11e8-911c-28924ad12c5c,-0.681,-51.678,2016-01-18 17:19:00,Brasil,AMAPÁ,MAZAGÃO,Amazônia,2016,1,18
6151,192590538,86ca5ae2-5aba-11e8-911c-28924ad12c5c,-14.03,-55.823,2016-01-18 17:16:00,Brasil,MATO GROSSO,NOVA MUTUM,Cerrado,2016,1,18
6316,192590185,4b9ee6d5-5abb-11e8-911c-28924ad12c5c,-25.547,-52.092,2016-01-18 17:12:00,Brasil,PARANÁ,CANDÓI,Mata Atlântica,2016,1,18
6366,192590249,4b9ee716-5abb-11e8-911c-28924ad12c5c,-23.783,-54.548,2016-01-18 17:13:00,Brasil,MATO GROSSO DO SUL,JAPORÃ,Mata Atlântica,2016,1,18
6423,192919982,86ca5c2c-5aba-11e8-911c-28924ad12c5c,-0.908,-51.76,2016-01-22 16:54:00,Brasil,AMAPÁ,VITÓRIA DO JARI,Amazônia,2016,1,22
6437,192919468,84922c6e-5aba-11e8-911c-28924ad12c5c,-15.399,-53.397,2016-01-22 16:51:00,Brasil,MATO GROSSO,GENERAL CARNEIRO,Cerrado,2016,1,22
6471,192926133,86ca5c9b-5aba-11e8-911c-28924ad12c5c,-7.649,-73.032,2016-01-22 18:31:00,Brasil,ACRE,MÂNCIO LIMA,Amazônia,2016,1,22
6473,192925828,86db1384-5aba-11e8-911c-28924ad12c5c,-10.103,-65.152,2016-01-22 18:30:00,Brasil,RONDÔNIA,NOVA MAMORÉ,Amazônia,2016,1,22
6474,192918539,595345ae-5abb-11e8-911c-28924ad12c5c,-23.245,-53.976,2016-01-22 16:49:00,Brasil,MATO GROSSO DO SUL,ITAQUIRAÍ,Mata Atlântica,2016,1,22
6480,192918546,595345b5-5abb-11e8-911c-28924ad12c5c,-19.819,-49.55,2016-01-22 16:49:00,Brasil,MINAS GERAIS,ITAPAGIPE,Cerrado,2016,1,22
6482,192918548,595345b8-5abb-11e8-911c-28924ad12c5c,-23.11,-52.495,2016-01-22 16:49:00,Brasil,PARANÁ,PARANAVAÍ,Mata Atlântica,2016,1,22
6485,192919303,595345bb-5abb-11e8-911c-28924ad12c5c,-18.547,-50.09,2016-01-22 16:50:00,Brasil,GOIÁS,GOUVELÂNDIA,Mata Atlântica,2016,1,22
6512,192918520,67e25c4c-5abb-11e8-911c-28924ad12c5c,-26.948,-50.856,2016-01-22 16:47:00,Brasil,SANTA CATARINA,FRAIBURGO,Mata Atlântica,2016,1,22
6566,192920291,86ca5c65-5aba-11e8-911c-28924ad12c5c,-3.627,-45.938,2016-01-22 16:54:00,Brasil,MARANHÃO,BOM JARDIM,Amazônia,2016,1,22
6617,192830363,84922c0c-5aba-11e8-911c-28924ad12c5c,2.218,-61.331,2016-01-21 17:51:00,Brasil,RORAIMA,IRACEMA,Amazônia,2016,1,21
6618,194586652,86edaf74-5aba-11e8-911c-28924ad12c5c,-8.968,-66.961,2016-02-07 18:31:00,Brasil,AMAZONAS,LÁBREA,Amazônia,2016,2,7
6623,192830283,86ca5bef-5aba-11e8-911c-28924ad12c5c,-1.463,-55.1,2016-01-21 17:50:00,Brasil,PARÁ,ALENQUER,Amazônia,2016,1,21
6627,192830287,86ca5bf3-5aba-11e8-911c-28924ad12c5c,-1.873,-57.084,2016-01-21 17:50:00,Brasil,AMAZONAS,NHAMUNDÁ,Amazônia,2016,1,21
6635,192829745,86ca5b96-5aba-11e8-911c-28924ad12c5c,-12.366,-63.965,2016-01-21 17:47:00,Brasil,RONDÔNIA,COSTA MARQUES,Amazônia,2016,1,21
6639,192829756,86ca5b9a-5aba-11e8-911c-28924ad12c5c,-13.038,-60.026,2016-01-21 17:47:00,Brasil,MATO GROSSO,COMODORO,Amazônia,2016,1,21
6712,192821639,86db1382-5aba-11e8-911c-28924ad12c5c,-1.818,-46.04,2016-01-21 16:11:00,Brasil,MARANHÃO,JUNCO DO MARANHÃO,Amazônia,2016,1,21
6714,192829505,4ba566ec-5abb-11e8-911c-28924ad12c5c,-21.03,-57.825,2016-01-21 17:44:00,Brasil,MATO GROSSO DO SUL,PORTO MURTINHO,Pantanal,2016,1,21
6716,192829511,4ba566f2-5abb-11e8-911c-28924ad12c5c,-21.776,-49.713,2016-01-21 17:44:00,Brasil,SÃO PAULO,CAFELÂNDIA,Mata Atlântica,2016,1,21
6878,193479314,86caec0f-5aba-11e8-911c-28924ad12c5c,-1.115,-56.284,2016-01-27 17:13:00,Brasil,PARÁ,ORIXIMINÁ,Amazônia,2016,1,27
6908,193476136,5954eb3e-5abb-11e8-911c-28924ad12c5c,-31.02,-52.435,2016-01-27 17:05:00,Brasil,RIO GRANDE DO SUL,CANGUÇU,Pampa,2016,1,27
6909,193476686,5954eb45-5abb-11e8-911c-28924ad12c5c,-20.55,-53.055,2016-01-27 17:08:00,Brasil,MATO GROSSO DO SUL,RIBAS DO RIO PARDO,Cerrado,2016,1,27
6910,193476703,5954eb46-5abb-11e8-911c-28924ad12c5c,-20.246,-48.31,2016-01-27 17:08:00,Brasil,SÃO PAULO,GUAÍRA,Cerrado,2016,1,27
6911,193476805,5954eb47-5abb-11e8-911c-28924ad12c5c,-20.337,-48.901,2016-01-27 17:08:00,Brasil,MINAS GERAIS,FRUTAL,Cerrado,2016,1,27
6919,193377656,8492b186-5aba-11e8-911c-28924ad12c5c,-3.714,-47.022,2016-01-26 16:29:00,Brasil,MARANHÃO,ITINGA DO MARANHÃO,Amazônia,2016,1,26
6920,193377675,8492b187-5aba-11e8-911c-28924ad12c5c,-1.062,-49.16,2016-01-26 16:30:00,Brasil,PARÁ,PONTA DE PEDRAS,Amazônia,2016,1,26
7009,193377595,4bb2ed39-5abb-11e8-911c-28924ad12c5c,-19.045,-40.25,2016-01-26 16:25:00,Brasil,ESPÍRITO SANTO,SOORETAMA,Mata Atlântica,2016,1,26
7010,193377601,4bb2ed3a-5abb-11e8-911c-28924ad12c5c,-19.369,-40.995,2016-01-26 16:25:00,Brasil,MINAS GERAIS,ITUETA,Mata Atlântica,2016,1,26
7012,193377651,4bb2ed3d-5abb-11e8-911c-28924ad12c5c,-12.051,-45.246,2016-01-26 16:27:00,Brasil,BAHIA,BARREIRAS,Cerrado,2016,1,26
7015,193377654,4bb2ed40-5abb-11e8-911c-28924ad12c5c,-9.204,-36.536,2016-01-26 16:27:00,Brasil,PERNAMBUCO,BOM CONSELHO,Caatinga,2016,1,26
7016,193385967,4bb2ed85-5abb-11e8-911c-28924ad12c5c,-18.729,-57.523,2016-01-26 18:03:00,Brasil,MATO GROSSO DO SUL,CORUMBÁ,Pantanal,2016,1,26
7017,193377556,5954e99c-5abb-11e8-911c-28924ad12c5c,-22.747,-48.369,2016-01-26 16:24:00,Brasil,SÃO PAULO,BOTUCATU,Cerrado,2016,1,26
7018,193377558,5954e99d-5abb-11e8-911c-28924ad12c5c,-21.176,-42.113,2016-01-26 16:24:00,Brasil,RIO DE JANEIRO,ITAPERUNA,Mata Atlântica,2016,1,26
7068,193693909,67e25d1b-5abb-11e8-911c-28924ad12c5c,-30.166,-51.762,2016-01-29 16:53:00,Brasil,RIO GRANDE DO SUL,ARROIO DOS RATOS,Pampa,2016,1,29
7072,193693913,67e2d78c-5abb-11e8-911c-28924ad12c5c,-24.956,-51.265,2016-01-29 16:54:00,Brasil,PARANÁ,PRUDENTÓPOLIS,Mata Atlântica,2016,1,29
7074,193694109,81f78732-5aba-11e8-911c-28924ad12c5c,-2.804,-52.774,2016-01-29 17:00:00,Brasil,PARÁ,BRASIL NOVO,Amazônia,2016,1,29
7076,193694115,81f78734-5aba-11e8-911c-28924ad12c5c,0.774,-60.465,2016-01-29 17:01:00,Brasil,RORAIMA,RORAINÓPOLIS,Amazônia,2016,1,29
7085,193693945,8492b2a2-5aba-11e8-911c-28924ad12c5c,-14.144,-58.229,2016-01-29 16:57:00,Brasil,MATO GROSSO,TANGARÁ DA SERRA,Cerrado,2016,1,29
7090,193694124,8492b2a7-5aba-11e8-911c-28924ad12c5c,-1.902,-60.024,2016-01-29 17:01:00,Brasil,AMAZONAS,PRESIDENTE FIGUEIREDO,Amazônia,2016,1,29
7132,193693929,4bbebe2d-5abb-11e8-911c-28924ad12c5c,-23.662,-54.143,2016-01-29 16:55:00,Brasil,MATO GROSSO DO SUL,ELDORADO,Mata Atlântica,2016,1,29
7134,193693931,4bbebe2f-5abb-11e8-911c-28924ad12c5c,-22.527,-51.803,2016-01-29 16:55:00,Brasil,SÃO PAULO,SANDOVALINA,Mata Atlântica,2016,1,29
7143,193693943,4bbebe38-5abb-11e8-911c-28924ad12c5c,-14.591,-39.285,2016-01-29 16:56:00,Brasil,BAHIA,URUÇUCA,Mata Atlântica,2016,1,29
7147,193573722,8492b22e-5aba-11e8-911c-28924ad12c5c,-12.43,-64.008,2016-01-28 17:53:00,Brasil,RONDÔNIA,COSTA MARQUES,Amazônia,2016,1,28
7148,193574724,8492b288-5aba-11e8-911c-28924ad12c5c,0.459,-63.62,2016-01-28 17:57:00,Brasil,AMAZONAS,BARCELOS,Amazônia,2016,1,28
7153,193573719,8492b22c-5aba-11e8-911c-28924ad12c5c,-12.921,-54.215,2016-01-28 17:53:00,Brasil,MATO GROSSO,PARANATINGA,Amazônia,2016,1,28
7167,193574540,8492b23b-5aba-11e8-911c-28924ad12c5c,0.618,-60.57,2016-01-28 17:56:00,Brasil,RORAIMA,RORAINÓPOLIS,Amazônia,2016,1,28
7279,193571061,4bb95154-5abb-11e8-911c-28924ad12c5c,-9.1,-35.625,2016-01-28 16:15:00,Brasil,ALAGOAS,JOAQUIM GOMES,Mata Atlântica,2016,1,28
7280,193571074,4bb95155-5abb-11e8-911c-28924ad12c5c,-7.326,-34.979,2016-01-28 16:15:00,Brasil,PARAÍBA,ALHANDRA,Mata Atlântica,2016,1,28
7282,193571076,4bb95157-5abb-11e8-911c-28924ad12c5c,-9.964,-37.868,2016-01-28 16:15:00,Brasil,SERGIPE,POÇO REDONDO,Caatinga,2016,1,28
7285,193571088,4bb9515a-5abb-11e8-911c-28924ad12c5c,-9.378,-36.942,2016-01-28 16:15:00,Brasil,PERNAMBUCO,IATI,Caatinga,2016,1,28
7286,193571095,4bb9515b-5abb-11e8-911c-28924ad12c5c,-5.922,-35.636,2016-01-28 16:16:00,Brasil,RIO GRANDE DO NORTE,SÃO PEDRO,Caatinga,2016,1,28
7289,193178287,8492b021-5aba-11e8-911c-28924ad12c5c,2.293,-61.352,2016-01-24 18:21:00,Brasil,RORAIMA,MUCAJAÍ,Amazônia,2016,1,24
7294,193165124,236bc882-5abb-11e8-911c-28924ad12c5c,-30.114,-50.199,2016-01-24 16:34:00,Brasil,RIO GRANDE DO SUL,CIDREIRA,Pampa,2016,1,24
7297,193177805,8492b01d-5aba-11e8-911c-28924ad12c5c,-7.648,-73.099,2016-01-24 18:19:00,Brasil,ACRE,MÂNCIO LIMA,Amazônia,2016,1,24
7315,193573697,4bb9516d-5abb-11e8-911c-28924ad12c5c,-21.339,-55.084,2016-01-28 17:50:00,Brasil,MATO GROSSO DO SUL,SIDROLÂNDIA,Cerrado,2016,1,28
7322,193571033,5b067050-5abb-11e8-911c-28924ad12c5c,-13.615,-39.63,2016-01-28 16:14:00,Brasil,BAHIA,WENCESLAU GUIMARÃES,Mata Atlântica,2016,1,28
7332,193045778,84922c95-5aba-11e8-911c-28924ad12c5c,-13.019,-52.944,2016-01-23 17:34:00,Brasil,MATO GROSSO,GAÚCHA DO NORTE,Amazônia,2016,1,23
7336,193046292,84922d16-5aba-11e8-911c-28924ad12c5c,-0.352,-63.352,2016-01-23 17:38:00,Brasil,AMAZONAS,BARCELOS,Amazônia,2016,1,23
7386,193165370,8492b00e-5aba-11e8-911c-28924ad12c5c,0.331,-50.861,2016-01-24 16:43:00,Brasil,AMAPÁ,MACAPÁ,Amazônia,2016,1,24
7388,193177769,8492b010-5aba-11e8-911c-28924ad12c5c,-13.027,-60.979,2016-01-24 18:17:00,Brasil,RONDÔNIA,CORUMBIARA,Amazônia,2016,1,24
7389,193177776,8492b011-5aba-11e8-911c-28924ad12c5c,-13.855,-58.947,2016-01-24 18:17:00,Brasil,MATO GROSSO,SAPEZAL,Cerrado,2016,1,24
7399,193178294,8492b023-5aba-11e8-911c-28924ad12c5c,-0.366,-63.355,2016-01-24 18:21:00,Brasil,AMAZONAS,BARCELOS,Amazônia,2016,1,24
7410,193165268,86caebb4-5aba-11e8-911c-28924ad12c5c,-9.607,-49.727,2016-01-24 16:40:00,Brasil,TOCANTINS,MARIANÓPOLIS DO TOCANTINS,Cerrado,2016,1,24
7444,193177656,4bae8dba-5abb-11e8-911c-28924ad12c5c,-19.459,-57.968,2016-01-24 18:15:00,Brasil,MATO GROSSO DO SUL,CORUMBÁ,Pantanal,2016,1,24
7447,193165187,5953e152-5abb-11e8-911c-28924ad12c5c,-28.202,-48.7,2016-01-24 16:35:00,Brasil,SANTA CATARINA,IMBITUBA,Mata Atlântica,2016,1,24
